[
    {
        "id": "gc_001",
        "name_kr": "레이크사이드 CC",
        "name_en": "Lakeside Country Club",
        "aliases": [
            "Lake Side",
            "레이크",
            "레이크사이드",
            "삼성",
            "용인 레이크"
        ],
        "region_depth1": "경기",
        "region_depth2": "용인",
        "location": {
            "lat": 37.3275,
            "lon": 127.2023
        },
        "course_type": "Public 54H"
    },
    {
        "id": "gc_002",
        "name_kr": "88 CC",
        "name_en": "88 Country Club",
        "aliases": [
            "88",
            "88컨트리",
            "팔팔"
        ],
        "region_depth1": "경기",
        "region_depth2": "용인",
        "location": {
            "lat": 37.2845,
            "lon": 127.1567
        },
        "course_type": "Membership 54H"
    },
    {
        "id": "gc_003",
        "name_kr": "가평 베네스트 GC",
        "name_en": "",
        "aliases": [
            "가베"
        ],
        "region_depth1": "경기",
        "region_depth2": "가평",
        "location": {
            "lat": 37.8967,
            "lon": 127.4243
        },
        "course_type": ""
    },
    {
        "id": "gc_004",
        "name_kr": "스카이72 GC",
        "name_en": "",
        "aliases": [
            "스카이",
            "하늘",
            "바다"
        ],
        "region_depth1": "인천",
        "region_depth2": "중구",
        "location": {
            "lat": 37.4578,
            "lon": 126.4132
        },
        "course_type": ""
    },
    {
        "id": "gc_005",
        "name_kr": "뉴서울 CC",
        "name_en": "",
        "aliases": [
            "뉴서울"
        ],
        "region_depth1": "경기",
        "region_depth2": "광주",
        "location": {
            "lat": 37.3612,
            "lon": 127.2345
        },
        "course_type": ""
    },
    {
        "id": "gc_006",
        "name_kr": "안성 베네스트 GC",
        "name_en": "",
        "aliases": [
            "안베"
        ],
        "region_depth1": "경기",
        "region_depth2": "안성",
        "location": {
            "lat": 37.0567,
            "lon": 127.3123
        },
        "course_type": ""
    },
    {
        "id": "gc_007",
        "name_kr": "블랙스톤 이천",
        "name_en": "",
        "aliases": [
            "블랙스톤"
        ],
        "region_depth1": "경기",
        "region_depth2": "이천",
        "location": {
            "lat": 37.189,
            "lon": 127.489
        },
        "course_type": ""
    },
    {
        "id": "gc_008",
        "name_kr": "태광 CC",
        "name_en": "",
        "aliases": [
            "태광"
        ],
        "region_depth1": "경기",
        "region_depth2": "용인",
        "location": {
            "lat": 37.2678,
            "lon": 127.0989
        },
        "course_type": ""
    },
    {
        "id": "gc_009",
        "name_kr": "서원힐스 CC",
        "name_en": "",
        "aliases": [
            "서원힐스"
        ],
        "region_depth1": "경기",
        "region_depth2": "파주",
        "location": {
            "lat": 37.8567,
            "lon": 126.8234
        },
        "course_type": ""
    },
    {
        "id": "gc_010",
        "name_kr": "라비에벨 CC",
        "name_en": "",
        "aliases": [
            "라비에벨"
        ],
        "region_depth1": "강원",
        "region_depth2": "춘천",
        "location": {
            "lat": 37.789,
            "lon": 127.8123
        },
        "course_type": ""
    },
    {
        "id": "gc_011",
        "name_kr": "태릉 CC",
        "name_en": "",
        "aliases": [
            "태릉"
        ],
        "region_depth1": "서울",
        "region_depth2": "노원",
        "location": {
            "lat": 37.6433,
            "lon": 127.1123
        },
        "course_type": ""
    },
    {
        "id": "gc_012",
        "name_kr": "기흥 CC",
        "name_en": "",
        "aliases": [
            "기흥"
        ],
        "region_depth1": "경기",
        "region_depth2": "화성",
        "location": {
            "lat": 37.2134,
            "lon": 127.1234
        },
        "course_type": ""
    },
    {
        "id": "gc_013",
        "name_kr": "골드 CC",
        "name_en": "",
        "aliases": [
            "골드"
        ],
        "region_depth1": "경기",
        "region_depth2": "용인",
        "location": {
            "lat": 37.2245,
            "lon": 127.1123
        },
        "course_type": ""
    },
    {
        "id": "gc_014",
        "name_kr": "코리아 CC",
        "name_en": "",
        "aliases": [
            "코리아"
        ],
        "region_depth1": "경기",
        "region_depth2": "용인",
        "location": {
            "lat": 37.2289,
            "lon": 127.1156
        },
        "course_type": ""
    },
    {
        "id": "gc_015",
        "name_kr": "남촌 CC",
        "name_en": "",
        "aliases": [
            "남촌"
        ],
        "region_depth1": "경기",
        "region_depth2": "광주",
        "location": {
            "lat": 37.3345,
            "lon": 127.289
        },
        "course_type": ""
    },
    {
        "id": "gc_016",
        "name_kr": "화산 CC",
        "name_en": "",
        "aliases": [
            "화산"
        ],
        "region_depth1": "경기",
        "region_depth2": "용인",
        "location": {
            "lat": 37.189,
            "lon": 127.2123
        },
        "course_type": ""
    },
    {
        "id": "gc_017",
        "name_kr": "아시아나 CC",
        "name_en": "",
        "aliases": [
            "아시아나"
        ],
        "region_depth1": "경기",
        "region_depth2": "용인",
        "location": {
            "lat": 37.2123,
            "lon": 127.2567
        },
        "course_type": ""
    },
    {
        "id": "gc_018",
        "name_kr": "한성 CC",
        "name_en": "",
        "aliases": [
            "한성"
        ],
        "region_depth1": "경기",
        "region_depth2": "용인",
        "location": {
            "lat": 37.2989,
            "lon": 127.1123
        },
        "course_type": ""
    },
    {
        "id": "gc_019",
        "name_kr": "수원 CC",
        "name_en": "",
        "aliases": [
            "수원"
        ],
        "region_depth1": "경기",
        "region_depth2": "용인",
        "location": {
            "lat": 37.2789,
            "lon": 127.1234
        },
        "course_type": ""
    },
    {
        "id": "gc_020",
        "name_kr": "플라자 CC 용인",
        "name_en": "",
        "aliases": [
            "플라자"
        ],
        "region_depth1": "경기",
        "region_depth2": "용인",
        "location": {
            "lat": 37.1567,
            "lon": 127.1989
        },
        "course_type": ""
    },
    {
        "id": "gc_021",
        "name_kr": "해슬리 나인브릿지",
        "name_en": "",
        "aliases": [
            "해슬리",
            "나인브릿지"
        ],
        "region_depth1": "경기",
        "region_depth2": "여주",
        "location": {
            "lat": 37.1983,
            "lon": 127.3211
        },
        "course_type": ""
    },
    {
        "id": "gc_022",
        "name_kr": "자유 CC",
        "name_en": "",
        "aliases": [
            "자유"
        ],
        "region_depth1": "경기",
        "region_depth2": "여주",
        "location": {
            "lat": 37.2567,
            "lon": 127.589
        },
        "course_type": ""
    },
    {
        "id": "gc_023",
        "name_kr": "신라 CC",
        "name_en": "",
        "aliases": [
            "신라"
        ],
        "region_depth1": "경기",
        "region_depth2": "여주",
        "location": {
            "lat": 37.389,
            "lon": 127.5123
        },
        "course_type": ""
    },
    {
        "id": "gc_024",
        "name_kr": "블루헤런 GC",
        "name_en": "",
        "aliases": [
            "블루헤런"
        ],
        "region_depth1": "경기",
        "region_depth2": "여주",
        "location": {
            "lat": 37.4123,
            "lon": 127.5567
        },
        "course_type": ""
    },
    {
        "id": "gc_025",
        "name_kr": "사우스스프링스 CC",
        "name_en": "",
        "aliases": [
            "사우스스프링스"
        ],
        "region_depth1": "경기",
        "region_depth2": "이천",
        "location": {
            "lat": 37.1678,
            "lon": 127.4234
        },
        "course_type": ""
    },
    {
        "id": "gc_026",
        "name_kr": "비에이비스타 CC",
        "name_en": "",
        "aliases": [
            "비에이"
        ],
        "region_depth1": "경기",
        "region_depth2": "이천",
        "location": {
            "lat": 37.1234,
            "lon": 127.4567
        },
        "course_type": ""
    },
    {
        "id": "gc_027",
        "name_kr": "써닝포인트 CC",
        "name_en": "",
        "aliases": [
            "써닝포인트"
        ],
        "region_depth1": "경기",
        "region_depth2": "용인",
        "location": {
            "lat": 37.1456,
            "lon": 127.389
        },
        "course_type": ""
    },
    {
        "id": "gc_028",
        "name_kr": "에덴블루 CC",
        "name_en": "",
        "aliases": [
            "에덴블루"
        ],
        "region_depth1": "경기",
        "region_depth2": "안성",
        "location": {
            "lat": 37.089,
            "lon": 127.289
        },
        "course_type": ""
    },
    {
        "id": "gc_029",
        "name_kr": "마에스트로 CC",
        "name_en": "",
        "aliases": [
            "마에스트로"
        ],
        "region_depth1": "경기",
        "region_depth2": "안성",
        "location": {
            "lat": 37.0456,
            "lon": 127.2123
        },
        "course_type": ""
    },
    {
        "id": "gc_030",
        "name_kr": "송추 CC",
        "name_en": "",
        "aliases": [
            "송추"
        ],
        "region_depth1": "경기",
        "region_depth2": "양주",
        "location": {
            "lat": 37.7234,
            "lon": 126.9567
        },
        "course_type": ""
    },
    {
        "id": "gc_031",
        "name_kr": "서원밸리 CC",
        "name_en": "",
        "aliases": [
            "서원밸리"
        ],
        "region_depth1": "경기",
        "region_depth2": "파주",
        "location": {
            "lat": 37.8456,
            "lon": 126.8123
        },
        "course_type": ""
    },
    {
        "id": "gc_032",
        "name_kr": "스마트시티 GC",
        "name_en": "",
        "aliases": [
            "스마트시티"
        ],
        "region_depth1": "경기",
        "region_depth2": "파주",
        "location": {
            "lat": 37.789,
            "lon": 126.789
        },
        "course_type": ""
    },
    {
        "id": "gc_033",
        "name_kr": "타이거 CC",
        "name_en": "",
        "aliases": [
            "타이거"
        ],
        "region_depth1": "경기",
        "region_depth2": "파주",
        "location": {
            "lat": 37.9123,
            "lon": 126.889
        },
        "course_type": ""
    },
    {
        "id": "gc_034",
        "name_kr": "몽베르 CC",
        "name_en": "",
        "aliases": [
            "몽베르"
        ],
        "region_depth1": "경기",
        "region_depth2": "포천",
        "location": {
            "lat": 38.1234,
            "lon": 127.3456
        },
        "course_type": ""
    },
    {
        "id": "gc_035",
        "name_kr": "베어즈크리크 GC",
        "name_en": "",
        "aliases": [
            "베어즈크리크"
        ],
        "region_depth1": "경기",
        "region_depth2": "포천",
        "location": {
            "lat": 37.9567,
            "lon": 127.289
        },
        "course_type": ""
    },
    {
        "id": "gc_036",
        "name_kr": "남성대 CC",
        "name_en": "",
        "aliases": [
            "남성대"
        ],
        "region_depth1": "서울",
        "region_depth2": "송파",
        "location": {
            "lat": 37.4789,
            "lon": 127.1356
        },
        "course_type": ""
    },
    {
        "id": "gc_037",
        "name_kr": "드림파크 CC",
        "name_en": "",
        "aliases": [
            "드림파크"
        ],
        "region_depth1": "인천",
        "region_depth2": "서구",
        "location": {
            "lat": 37.5689,
            "lon": 126.6543
        },
        "course_type": ""
    },
    {
        "id": "gc_038",
        "name_kr": "레이크우드 CC",
        "name_en": "Lakewood Country Club",
        "aliases": [
            "Lakewood",
            "레이크우드"
        ],
        "region_depth1": "경기",
        "region_depth2": "양주",
        "location": {
            "lat": 37.8123,
            "lon": 127.089
        },
        "course_type": "Public 36H"
    },
    {
        "id": "gc_039",
        "name_kr": "서서울 CC",
        "name_en": "",
        "aliases": [
            "서서울"
        ],
        "region_depth1": "경기",
        "region_depth2": "파주",
        "location": {
            "lat": 37.6989,
            "lon": 126.8567
        },
        "course_type": ""
    },
    {
        "id": "gc_040",
        "name_kr": "아난티 코드 GC",
        "name_en": "",
        "aliases": [
            "아난티"
        ],
        "region_depth1": "경기",
        "region_depth2": "가평",
        "location": {
            "lat": 37.7567,
            "lon": 127.5123
        },
        "course_type": ""
    },
    {
        "id": "gc_041",
        "name_kr": "잭니클라우스 GC",
        "name_en": "",
        "aliases": [
            "잭니클라우스"
        ],
        "region_depth1": "인천",
        "region_depth2": "송도",
        "location": {
            "lat": 37.389,
            "lon": 126.6123
        },
        "course_type": ""
    },
    {
        "id": "gc_042",
        "name_kr": "오렌지듄스 GC",
        "name_en": "",
        "aliases": [
            "오렌지듄스"
        ],
        "region_depth1": "인천",
        "region_depth2": "송도",
        "location": {
            "lat": 37.3678,
            "lon": 126.6234
        },
        "course_type": ""
    },
    {
        "id": "gc_043",
        "name_kr": "웰링턴 CC",
        "name_en": "",
        "aliases": [
            "웰링턴"
        ],
        "region_depth1": "경기",
        "region_depth2": "이천",
        "location": {
            "lat": 37.2123,
            "lon": 127.4123
        },
        "course_type": ""
    },
    {
        "id": "gc_044",
        "name_kr": "렉스필드 CC",
        "name_en": "",
        "aliases": [
            "렉스필드"
        ],
        "region_depth1": "경기",
        "region_depth2": "여주",
        "location": {
            "lat": 37.3123,
            "lon": 127.4234
        },
        "course_type": ""
    },
    {
        "id": "gc_045",
        "name_kr": "이스트밸리 CC",
        "name_en": "",
        "aliases": [
            "이스트밸리"
        ],
        "region_depth1": "경기",
        "region_depth2": "광주",
        "location": {
            "lat": 37.3456,
            "lon": 127.3123
        },
        "course_type": ""
    },
    {
        "id": "gc_046",
        "name_kr": "캐슬파인 GC",
        "name_en": "",
        "aliases": [
            "캐슬파인"
        ],
        "region_depth1": "경기",
        "region_depth2": "여주",
        "location": {
            "lat": 37.3234,
            "lon": 127.5123
        },
        "course_type": ""
    },
    {
        "id": "gc_047",
        "name_kr": "중부 CC",
        "name_en": "",
        "aliases": [
            "중부"
        ],
        "region_depth1": "경기",
        "region_depth2": "광주",
        "location": {
            "lat": 37.3123,
            "lon": 127.2567
        },
        "course_type": ""
    },
    {
        "id": "gc_048",
        "name_kr": "그린힐 CC",
        "name_en": "",
        "aliases": [
            "그린힐"
        ],
        "region_depth1": "경기",
        "region_depth2": "광주",
        "location": {
            "lat": 37.289,
            "lon": 127.289
        },
        "course_type": ""
    },
    {
        "id": "gc_049",
        "name_kr": "광릉 CC",
        "name_en": "",
        "aliases": [
            "광릉"
        ],
        "region_depth1": "경기",
        "region_depth2": "남양주",
        "location": {
            "lat": 37.7456,
            "lon": 127.2123
        },
        "course_type": ""
    },
    {
        "id": "gc_050",
        "name_kr": "양주 CC",
        "name_en": "",
        "aliases": [
            "양주"
        ],
        "region_depth1": "경기",
        "region_depth2": "남양주",
        "location": {
            "lat": 37.6123,
            "lon": 127.3234
        },
        "course_type": ""
    },
    {
        "id": "gc_051",
        "name_kr": "스카이72 골프클럽",
        "name_en": "Sky72 Golf Club",
        "aliases": [
            "스카이72",
            "하늘코스",
            "Sky 72"
        ],
        "region_depth1": "인천",
        "region_depth2": "중구",
        "location": {
            "lat": 37.4539,
            "lon": 126.4407
        },
        "course_type": "Public 72H"
    },
    {
        "id": "gc_052",
        "name_kr": "남서울 CC",
        "name_en": "Nam Seoul Country Club",
        "aliases": [
            "남서울",
            "남서울컨트리",
            "Nam Seoul"
        ],
        "region_depth1": "경기",
        "region_depth2": "성남",
        "location": {
            "lat": 37.3826,
            "lon": 127.084
        },
        "course_type": "Membership 27H"
    },
    {
        "id": "gc_053",
        "name_kr": "안양 CC",
        "name_en": "Anyang Country Club",
        "aliases": [
            "안양",
            "안양컨트리",
            "Anyang"
        ],
        "region_depth1": "경기",
        "region_depth2": "안양",
        "location": {
            "lat": 37.3609,
            "lon": 126.9219
        },
        "course_type": "Membership 36H"
    },
    {
        "id": "gc_054",
        "name_kr": "썬힐 CC",
        "name_en": "Sun Hill Country Club",
        "aliases": [
            "썬힐",
            "선힐",
            "Sun Hill"
        ],
        "region_depth1": "경기",
        "region_depth2": "화성",
        "location": {
            "lat": 37.1389,
            "lon": 126.9847
        },
        "course_type": "Public 27H"
    },
    {
        "id": "gc_055",
        "name_kr": "가평 베네스트 골프클럽",
        "name_en": "Gapyeong Benest Golf Club",
        "aliases": [
            "가평베네스트",
            "베네스트",
            "Benest"
        ],
        "region_depth1": "경기",
        "region_depth2": "가평",
        "location": {
            "lat": 37.7447,
            "lon": 127.5422
        },
        "course_type": "Public 27H"
    },
    {
        "id": "gc_056",
        "name_kr": "블루원 용인",
        "name_en": "Blue One Yongin",
        "aliases": [
            "블루원",
            "용인블루원",
            "Blue One"
        ],
        "region_depth1": "경기",
        "region_depth2": "용인",
        "location": {
            "lat": 37.2322,
            "lon": 127.1942
        },
        "course_type": "Public 36H"
    },
    {
        "id": "gc_057",
        "name_kr": "파인밸리 CC",
        "name_en": "Pine Valley Country Club",
        "aliases": [
            "파인밸리",
            "Pine Valley"
        ],
        "region_depth1": "경기",
        "region_depth2": "파주",
        "location": {
            "lat": 37.7512,
            "lon": 126.7857
        },
        "course_type": "Public 27H"
    }
]
