[
    {
        "id": "gc_001",
        "name_kr": "한양컨트리클럽",
        "name_en": "",
        "aliases": [
            "한양"
        ],
        "region_depth1": "경기",
        "region_depth2": "고양시",
        "location": {
            "lat": 37.6717,
            "lon": 126.8569
        },
        "course_type": "회원제"
    },
    {
        "id": "gc_002",
        "name_kr": "뉴코리아 컨트리클럽",
        "name_en": "",
        "aliases": [
            "뉴코리아"
        ],
        "region_depth1": "경기",
        "region_depth2": "고양시",
        "location": {
            "lat": 37.665,
            "lon": 126.8767
        },
        "course_type": "회원제"
    },
    {
        "id": "gc_003",
        "name_kr": "고양컨트리클럽",
        "name_en": "",
        "aliases": [
            "고양"
        ],
        "region_depth1": "경기",
        "region_depth2": "고양시",
        "location": {
            "lat": 37.6369,
            "lon": 126.8588
        },
        "course_type": "대중제"
    },
    {
        "id": "gc_004",
        "name_kr": "1.2.3",
        "name_en": "",
        "aliases": [
            "1.2.3"
        ],
        "region_depth1": "경기",
        "region_depth2": "고양시",
        "location": {
            "lat": 37.6414,
            "lon": 126.9062
        },
        "course_type": "대중제"
    },
    {
        "id": "gc_005",
        "name_kr": "올림픽 골프장",
        "name_en": "",
        "aliases": [
            "올림픽골프장"
        ],
        "region_depth1": "경기",
        "region_depth2": "고양시",
        "location": {
            "lat": 37.7011,
            "lon": 126.8837
        },
        "course_type": "대중제"
    },
    {
        "id": "gc_006",
        "name_kr": "일산스프링힐스 컨트리클럽",
        "name_en": "",
        "aliases": [
            "일산스프링힐스"
        ],
        "region_depth1": "경기",
        "region_depth2": "고양시",
        "location": {
            "lat": 37.6578,
            "lon": 126.8135
        },
        "course_type": "대중제"
    },
    {
        "id": "gc_007",
        "name_kr": "한양컨트리클럽 대중제 9홀 골프장",
        "name_en": "",
        "aliases": [
            "한양대중제9홀골프장"
        ],
        "region_depth1": "경기",
        "region_depth2": "고양시",
        "location": {
            "lat": 37.2636,
            "lon": 127.0286
        },
        "course_type": "대중제"
    },
    {
        "id": "gc_008",
        "name_kr": "한원CC",
        "name_en": "",
        "aliases": [
            "한원"
        ],
        "region_depth1": "경기",
        "region_depth2": "용인시",
        "location": {
            "lat": 37.2636,
            "lon": 127.0286
        },
        "course_type": "회원제"
    },
    {
        "id": "gc_009",
        "name_kr": "양지파인CC",
        "name_en": "",
        "aliases": [
            "양지파인"
        ],
        "region_depth1": "경기",
        "region_depth2": "용인시",
        "location": {
            "lat": 37.2179,
            "lon": 127.2951
        },
        "course_type": "대중제"
    },
    {
        "id": "gc_010",
        "name_kr": "수원CC",
        "name_en": "",
        "aliases": [
            "수원"
        ],
        "region_depth1": "경기",
        "region_depth2": "용인시",
        "location": {
            "lat": 37.2794,
            "lon": 127.1132
        },
        "course_type": "회원제"
    },
    {
        "id": "gc_011",
        "name_kr": "플라자CC",
        "name_en": "",
        "aliases": [
            "플라자"
        ],
        "region_depth1": "경기",
        "region_depth2": "용인시",
        "location": {
            "lat": 37.1338,
            "lon": 127.1408
        },
        "course_type": "회원제"
    },
    {
        "id": "gc_012",
        "name_kr": "태광CC",
        "name_en": "",
        "aliases": [
            "태광"
        ],
        "region_depth1": "경기",
        "region_depth2": "용인시",
        "location": {
            "lat": 37.285,
            "lon": 127.0851
        },
        "course_type": "회원제"
    },
    {
        "id": "gc_013",
        "name_kr": "태광CC",
        "name_en": "",
        "aliases": [
            "태광"
        ],
        "region_depth1": "경기",
        "region_depth2": "용인시",
        "location": {
            "lat": 37.285,
            "lon": 127.0851
        },
        "course_type": "대중제"
    },
    {
        "id": "gc_014",
        "name_kr": "한성CC",
        "name_en": "",
        "aliases": [
            "한성"
        ],
        "region_depth1": "경기",
        "region_depth2": "용인시",
        "location": {
            "lat": 37.3602,
            "lon": 127.1044
        },
        "course_type": "회원제"
    },
    {
        "id": "gc_015",
        "name_kr": "골드CC",
        "name_en": "",
        "aliases": [
            "골드"
        ],
        "region_depth1": "경기",
        "region_depth2": "용인시",
        "location": {
            "lat": 37.2285,
            "lon": 127.1265
        },
        "course_type": "회원제"
    },
    {
        "id": "gc_016",
        "name_kr": "88CC",
        "name_en": "",
        "aliases": [
            "88"
        ],
        "region_depth1": "경기",
        "region_depth2": "용인시",
        "location": {
            "lat": 37.2845,
            "lon": 127.1594
        },
        "course_type": "회원제"
    },
    {
        "id": "gc_017",
        "name_kr": "레이크사이드CC",
        "name_en": "",
        "aliases": [
            "레이크사이드"
        ],
        "region_depth1": "경기",
        "region_depth2": "용인시",
        "location": {
            "lat": 37.3196,
            "lon": 127.1791
        },
        "course_type": "대중제"
    },
    {
        "id": "gc_018",
        "name_kr": "레이크사이드CC",
        "name_en": "",
        "aliases": [
            "레이크사이드"
        ],
        "region_depth1": "경기",
        "region_depth2": "용인시",
        "location": {
            "lat": 37.3196,
            "lon": 127.1791
        },
        "course_type": "회원제"
    },
    {
        "id": "gc_019",
        "name_kr": "남부CC",
        "name_en": "",
        "aliases": [
            "남부"
        ],
        "region_depth1": "경기",
        "region_depth2": "용인시",
        "location": {
            "lat": 37.3596,
            "lon": 127.1054
        },
        "course_type": "회원제"
    },
    {
        "id": "gc_020",
        "name_kr": "신원CC",
        "name_en": "",
        "aliases": [
            "신원"
        ],
        "region_depth1": "경기",
        "region_depth2": "용인시",
        "location": {
            "lat": 37.2636,
            "lon": 127.0286
        },
        "course_type": "회원제"
    },
    {
        "id": "gc_021",
        "name_kr": "은화삼CC",
        "name_en": "",
        "aliases": [
            "은화삼"
        ],
        "region_depth1": "경기",
        "region_depth2": "용인시",
        "location": {
            "lat": 37.2154,
            "lon": 127.2189
        },
        "course_type": "회원제"
    },
    {
        "id": "gc_022",
        "name_kr": "아시아나CC",
        "name_en": "",
        "aliases": [
            "아시아나"
        ],
        "region_depth1": "경기",
        "region_depth2": "용인시",
        "location": {
            "lat": 37.2541,
            "lon": 127.2891
        },
        "course_type": "회원제"
    },
    {
        "id": "gc_023",
        "name_kr": "블루원용인CC",
        "name_en": "",
        "aliases": [
            "블루원용인"
        ],
        "region_depth1": "경기",
        "region_depth2": "용인시",
        "location": {
            "lat": 37.1341,
            "lon": 127.3259
        },
        "course_type": "회원제"
    },
    {
        "id": "gc_024",
        "name_kr": "블루원용인CC",
        "name_en": "",
        "aliases": [
            "블루원용인"
        ],
        "region_depth1": "경기",
        "region_depth2": "용인시",
        "location": {
            "lat": 37.1341,
            "lon": 127.3259
        },
        "course_type": "대중제"
    },
    {
        "id": "gc_025",
        "name_kr": "코리아CC",
        "name_en": "",
        "aliases": [
            "코리아"
        ],
        "region_depth1": "경기",
        "region_depth2": "용인시",
        "location": {
            "lat": 37.21,
            "lon": 127.13
        },
        "course_type": "회원제"
    },
    {
        "id": "gc_026",
        "name_kr": "코리아퍼브릭",
        "name_en": "",
        "aliases": [
            "코리아퍼브릭"
        ],
        "region_depth1": "경기",
        "region_depth2": "용인시",
        "location": {
            "lat": 37.2636,
            "lon": 127.0286
        },
        "course_type": "대중제"
    },
    {
        "id": "gc_027",
        "name_kr": "지산CC",
        "name_en": "",
        "aliases": [
            "지산"
        ],
        "region_depth1": "경기",
        "region_depth2": "용인시",
        "location": {
            "lat": 37.2161,
            "lon": 127.3365
        },
        "course_type": "회원제"
    },
    {
        "id": "gc_028",
        "name_kr": "지산CC",
        "name_en": "",
        "aliases": [
            "지산"
        ],
        "region_depth1": "경기",
        "region_depth2": "용인시",
        "location": {
            "lat": 37.2161,
            "lon": 127.3365
        },
        "course_type": "대중제"
    },
    {
        "id": "gc_029",
        "name_kr": "화산CC",
        "name_en": "",
        "aliases": [
            "화산"
        ],
        "region_depth1": "경기",
        "region_depth2": "용인시",
        "location": {
            "lat": 37.1544,
            "lon": 127.2337
        },
        "course_type": "회원제"
    },
    {
        "id": "gc_030",
        "name_kr": "한림용인CC",
        "name_en": "",
        "aliases": [
            "한림용인"
        ],
        "region_depth1": "경기",
        "region_depth2": "용인시",
        "location": {
            "lat": 37.1298,
            "lon": 127.1899
        },
        "course_type": "대중제"
    },
    {
        "id": "gc_031",
        "name_kr": "글렌로스골프클럽",
        "name_en": "",
        "aliases": [
            "글렌로스골프클럽"
        ],
        "region_depth1": "경기",
        "region_depth2": "용인시",
        "location": {
            "lat": 37.2636,
            "lon": 127.0286
        },
        "course_type": "대중제"
    },
    {
        "id": "gc_032",
        "name_kr": "용인CC",
        "name_en": "",
        "aliases": [
            "용인"
        ],
        "region_depth1": "경기",
        "region_depth2": "용인시",
        "location": {
            "lat": 37.2636,
            "lon": 127.0286
        },
        "course_type": "대중제"
    },
    {
        "id": "gc_033",
        "name_kr": "석천CC",
        "name_en": "",
        "aliases": [
            "석천"
        ],
        "region_depth1": "경기",
        "region_depth2": "용인시",
        "location": {
            "lat": 37.2636,
            "lon": 127.0286
        },
        "course_type": "대중제"
    },
    {
        "id": "gc_034",
        "name_kr": "써닝포인트CC",
        "name_en": "",
        "aliases": [
            "써닝포인트"
        ],
        "region_depth1": "경기",
        "region_depth2": "용인시",
        "location": {
            "lat": 37.1458,
            "lon": 127.4196
        },
        "course_type": "대중제"
    },
    {
        "id": "gc_035",
        "name_kr": "해솔리아CC",
        "name_en": "",
        "aliases": [
            "해솔리아"
        ],
        "region_depth1": "경기",
        "region_depth2": "용인시",
        "location": {
            "lat": 37.2037,
            "lon": 127.1841
        },
        "course_type": "대중제"
    },
    {
        "id": "gc_036",
        "name_kr": "세현CC",
        "name_en": "",
        "aliases": [
            "세현"
        ],
        "region_depth1": "경기",
        "region_depth2": "용인시",
        "location": {
            "lat": 37.2636,
            "lon": 127.0286
        },
        "course_type": "대중제"
    },
    {
        "id": "gc_037",
        "name_kr": "남서울컨트리클럽",
        "name_en": "",
        "aliases": [
            "남서울"
        ],
        "region_depth1": "경기",
        "region_depth2": "성남시",
        "location": {
            "lat": 37.3596,
            "lon": 127.1054
        },
        "course_type": "회원제"
    },
    {
        "id": "gc_038",
        "name_kr": "리베라CC",
        "name_en": "",
        "aliases": [
            "리베라"
        ],
        "region_depth1": "경기",
        "region_depth2": "화성시",
        "location": {
            "lat": 37.1908,
            "lon": 127.112
        },
        "course_type": "회원제"
    },
    {
        "id": "gc_039",
        "name_kr": "기흥CC",
        "name_en": "",
        "aliases": [
            "기흥"
        ],
        "region_depth1": "경기",
        "region_depth2": "화성시",
        "location": {
            "lat": 37.2034,
            "lon": 127.1444
        },
        "course_type": "회원제"
    },
    {
        "id": "gc_040",
        "name_kr": "발리오스CC",
        "name_en": "",
        "aliases": [
            "발리오스"
        ],
        "region_depth1": "경기",
        "region_depth2": "화성시",
        "location": {
            "lat": 37.1157,
            "lon": 126.8607
        },
        "course_type": "회원제"
    },
    {
        "id": "gc_041",
        "name_kr": "발리오스대중",
        "name_en": "",
        "aliases": [
            "발리오스대중"
        ],
        "region_depth1": "경기",
        "region_depth2": "화성시",
        "location": {
            "lat": 37.2636,
            "lon": 127.0286
        },
        "course_type": "대중제"
    },
    {
        "id": "gc_042",
        "name_kr": "라비돌대중",
        "name_en": "",
        "aliases": [
            "라비돌대중"
        ],
        "region_depth1": "경기",
        "region_depth2": "화성시",
        "location": {
            "lat": 37.2,
            "lon": 126.9
        },
        "course_type": "대중제"
    },
    {
        "id": "gc_043",
        "name_kr": "상록GC",
        "name_en": "",
        "aliases": [
            "상록"
        ],
        "region_depth1": "경기",
        "region_depth2": "화성시",
        "location": {
            "lat": 37.2636,
            "lon": 127.0286
        },
        "course_type": "대중제"
    },
    {
        "id": "gc_044",
        "name_kr": "화성골프클럽",
        "name_en": "",
        "aliases": [
            "화성골프클럽"
        ],
        "region_depth1": "경기",
        "region_depth2": "화성시",
        "location": {
            "lat": 37.2636,
            "lon": 127.0286
        },
        "course_type": "대중제"
    },
    {
        "id": "gc_045",
        "name_kr": "링크나인골프클럽",
        "name_en": "",
        "aliases": [
            "링크나인골프클럽"
        ],
        "region_depth1": "경기",
        "region_depth2": "화성시",
        "location": {
            "lat": 37.2636,
            "lon": 127.0286
        },
        "course_type": "대중제"
    },
    {
        "id": "gc_046",
        "name_kr": "아일랜드㈜",
        "name_en": "",
        "aliases": [
            "아일랜드㈜"
        ],
        "region_depth1": "경기",
        "region_depth2": "안산시",
        "location": {
            "lat": 37.2636,
            "lon": 127.0286
        },
        "course_type": "대중제"
    },
    {
        "id": "gc_047",
        "name_kr": "제일스포츠센타",
        "name_en": "",
        "aliases": [
            "제일스포츠센타"
        ],
        "region_depth1": "경기",
        "region_depth2": "안산시",
        "location": {
            "lat": 37.2636,
            "lon": 127.0286
        },
        "course_type": "회원제"
    },
    {
        "id": "gc_048",
        "name_kr": "양주C.C",
        "name_en": "",
        "aliases": [
            "양주"
        ],
        "region_depth1": "경기",
        "region_depth2": "남양주시",
        "location": {
            "lat": 37.2636,
            "lon": 127.0286
        },
        "course_type": "회원제"
    },
    {
        "id": "gc_049",
        "name_kr": "한림광릉C.C",
        "name_en": "",
        "aliases": [
            "한림광릉"
        ],
        "region_depth1": "경기",
        "region_depth2": "남양주시",
        "location": {
            "lat": 37.2636,
            "lon": 127.0286
        },
        "course_type": "회원제"
    },
    {
        "id": "gc_050",
        "name_kr": "한림광릉C.C",
        "name_en": "",
        "aliases": [
            "한림광릉"
        ],
        "region_depth1": "경기",
        "region_depth2": "남양주시",
        "location": {
            "lat": 37.2636,
            "lon": 127.0286
        },
        "course_type": "대중제"
    },
    {
        "id": "gc_051",
        "name_kr": "비전힐스C.C",
        "name_en": "",
        "aliases": [
            "비전힐스"
        ],
        "region_depth1": "경기",
        "region_depth2": "남양주시",
        "location": {
            "lat": 37.2636,
            "lon": 127.0286
        },
        "course_type": "회원제"
    },
    {
        "id": "gc_052",
        "name_kr": "해비치C.C",
        "name_en": "",
        "aliases": [
            "해비치"
        ],
        "region_depth1": "경기",
        "region_depth2": "남양주시",
        "location": {
            "lat": 37.2636,
            "lon": 127.0286
        },
        "course_type": "회원제"
    },
    {
        "id": "gc_053",
        "name_kr": "남양주C.C",
        "name_en": "",
        "aliases": [
            "남양주"
        ],
        "region_depth1": "경기",
        "region_depth2": "남양주시",
        "location": {
            "lat": 37.2636,
            "lon": 127.0286
        },
        "course_type": "대중제"
    },
    {
        "id": "gc_054",
        "name_kr": "솔트베이 골프클럽",
        "name_en": "",
        "aliases": [
            "솔트베이골프클럽"
        ],
        "region_depth1": "경기",
        "region_depth2": "시흥시",
        "location": {
            "lat": 37.3875,
            "lon": 126.7789
        },
        "course_type": "대중제"
    },
    {
        "id": "gc_055",
        "name_kr": "아세코밸리골프클럽",
        "name_en": "",
        "aliases": [
            "아세코밸리골프클럽"
        ],
        "region_depth1": "경기",
        "region_depth2": "시흥시",
        "location": {
            "lat": 37.2636,
            "lon": 127.0286
        },
        "course_type": "대중제"
    },
    {
        "id": "gc_056",
        "name_kr": "서서울",
        "name_en": "",
        "aliases": [
            "서서울"
        ],
        "region_depth1": "경기",
        "region_depth2": "파주시",
        "location": {
            "lat": 37.7495,
            "lon": 126.8459
        },
        "course_type": "회원제"
    },
    {
        "id": "gc_057",
        "name_kr": "서원밸리",
        "name_en": "",
        "aliases": [
            "서원밸리"
        ],
        "region_depth1": "경기",
        "region_depth2": "파주시",
        "location": {
            "lat": 37.821,
            "lon": 126.889
        },
        "course_type": "회원제"
    },
    {
        "id": "gc_058",
        "name_kr": "서원밸리",
        "name_en": "",
        "aliases": [
            "서원밸리"
        ],
        "region_depth1": "경기",
        "region_depth2": "파주시",
        "location": {
            "lat": 37.821,
            "lon": 126.889
        },
        "course_type": "대중제"
    },
    {
        "id": "gc_059",
        "name_kr": "J-PUBLIC",
        "name_en": "",
        "aliases": [
            "J-PUBLIC"
        ],
        "region_depth1": "경기",
        "region_depth2": "파주시",
        "location": {
            "lat": 37.2636,
            "lon": 127.0286
        },
        "course_type": "대중제"
    },
    {
        "id": "gc_060",
        "name_kr": "파주CC",
        "name_en": "",
        "aliases": [
            "파주"
        ],
        "region_depth1": "경기",
        "region_depth2": "파주시",
        "location": {
            "lat": 37.8447,
            "lon": 126.8522
        },
        "course_type": "대중제"
    },
    {
        "id": "gc_061",
        "name_kr": "베스트밸리",
        "name_en": "",
        "aliases": [
            "베스트밸리"
        ],
        "region_depth1": "경기",
        "region_depth2": "파주시",
        "location": {
            "lat": 37.2636,
            "lon": 127.0286
        },
        "course_type": "대중제"
    },
    {
        "id": "gc_062",
        "name_kr": "노스팜",
        "name_en": "",
        "aliases": [
            "노스팜"
        ],
        "region_depth1": "경기",
        "region_depth2": "파주시",
        "location": {
            "lat": 37.2636,
            "lon": 127.0286
        },
        "course_type": "대중제"
    },
    {
        "id": "gc_063",
        "name_kr": "스마트KU골프 파빌리온",
        "name_en": "",
        "aliases": [
            "스마트KU골프파빌리온"
        ],
        "region_depth1": "경기",
        "region_depth2": "파주시",
        "location": {
            "lat": 37.8824,
            "lon": 126.8681
        },
        "course_type": "대중제"
    },
    {
        "id": "gc_064",
        "name_kr": "타이거CC 골프장",
        "name_en": "",
        "aliases": [
            "타이거골프장"
        ],
        "region_depth1": "경기",
        "region_depth2": "파주시",
        "location": {
            "lat": 37.2636,
            "lon": 127.0286
        },
        "course_type": "대중제"
    },
    {
        "id": "gc_065",
        "name_kr": "김포 SEASIDE 컨트리클럽",
        "name_en": "",
        "aliases": [
            "김포SEASIDE"
        ],
        "region_depth1": "경기",
        "region_depth2": "김포시",
        "location": {
            "lat": 37.7061,
            "lon": 126.5339
        },
        "course_type": "회원제"
    },
    {
        "id": "gc_066",
        "name_kr": "남촌컨트리클럽",
        "name_en": "",
        "aliases": [
            "남촌"
        ],
        "region_depth1": "경기",
        "region_depth2": "광주시",
        "location": {
            "lat": 37.3536,
            "lon": 127.4139
        },
        "course_type": "회원제"
    },
    {
        "id": "gc_067",
        "name_kr": "이스트밸리컨트리클럽",
        "name_en": "",
        "aliases": [
            "이스트밸리"
        ],
        "region_depth1": "경기",
        "region_depth2": "광주시",
        "location": {
            "lat": 37.2636,
            "lon": 127.0286
        },
        "course_type": "회원제"
    },
    {
        "id": "gc_068",
        "name_kr": "그린힐컨트리클럽",
        "name_en": "",
        "aliases": [
            "그린힐"
        ],
        "region_depth1": "경기",
        "region_depth2": "광주시",
        "location": {
            "lat": 37.2636,
            "lon": 127.0286
        },
        "course_type": "회원제"
    },
    {
        "id": "gc_069",
        "name_kr": "강남300컨트리클럽",
        "name_en": "",
        "aliases": [
            "강남300"
        ],
        "region_depth1": "경기",
        "region_depth2": "광주시",
        "location": {
            "lat": 37.2636,
            "lon": 127.0286
        },
        "course_type": "회원제"
    },
    {
        "id": "gc_070",
        "name_kr": "큐로CC",
        "name_en": "",
        "aliases": [
            "큐로"
        ],
        "region_depth1": "경기",
        "region_depth2": "광주시",
        "location": {
            "lat": 37.2636,
            "lon": 127.0286
        },
        "course_type": "대중제"
    },
    {
        "id": "gc_071",
        "name_kr": "곤지암GC",
        "name_en": "",
        "aliases": [
            "곤지암"
        ],
        "region_depth1": "경기",
        "region_depth2": "광주시",
        "location": {
            "lat": 37.2636,
            "lon": 127.0286
        },
        "course_type": "회원제"
    },
    {
        "id": "gc_072",
        "name_kr": "중부컨트리클럽",
        "name_en": "",
        "aliases": [
            "중부"
        ],
        "region_depth1": "경기",
        "region_depth2": "광주시",
        "location": {
            "lat": 37.2636,
            "lon": 127.0286
        },
        "course_type": "회원제"
    },
    {
        "id": "gc_073",
        "name_kr": "뉴서울컨트리클럽",
        "name_en": "",
        "aliases": [
            "뉴서울"
        ],
        "region_depth1": "경기",
        "region_depth2": "광주시",
        "location": {
            "lat": 37.2636,
            "lon": 127.0286
        },
        "course_type": "회원제"
    },
    {
        "id": "gc_074",
        "name_kr": "삼성물산(주)안양컨트리클럽",
        "name_en": "",
        "aliases": [
            "삼성물산(주)안양"
        ],
        "region_depth1": "경기",
        "region_depth2": "군포시",
        "location": {
            "lat": 37.2636,
            "lon": 127.0286
        },
        "course_type": "회원제"
    },
    {
        "id": "gc_075",
        "name_kr": "㈜캐슬렉스서울 캐슬렉스골프클럽",
        "name_en": "",
        "aliases": [
            "㈜캐슬렉스서울캐슬렉스골프클럽"
        ],
        "region_depth1": "경기",
        "region_depth2": "하남시",
        "location": {
            "lat": 37.2636,
            "lon": 127.0286
        },
        "course_type": "회원제"
    },
    {
        "id": "gc_076",
        "name_kr": "로얄개발㈜ 레이크우드 골프장",
        "name_en": "",
        "aliases": [
            "로얄개발㈜레이크우드골프장"
        ],
        "region_depth1": "경기",
        "region_depth2": "양주시",
        "location": {
            "lat": 37.2636,
            "lon": 127.0286
        },
        "course_type": "회원제"
    },
    {
        "id": "gc_077",
        "name_kr": "레이크우드 골프장",
        "name_en": "",
        "aliases": [
            "레이크우드골프장"
        ],
        "region_depth1": "경기",
        "region_depth2": "양주시",
        "location": {
            "lat": 37.2636,
            "lon": 127.0286
        },
        "course_type": "대중제"
    },
    {
        "id": "gc_078",
        "name_kr": "송추cc",
        "name_en": "",
        "aliases": [
            "송추cc"
        ],
        "region_depth1": "경기",
        "region_depth2": "양주시",
        "location": {
            "lat": 37.2636,
            "lon": 127.0286
        },
        "course_type": "회원제"
    },
    {
        "id": "gc_079",
        "name_kr": "에이치원클럽",
        "name_en": "",
        "aliases": [
            "에이치원클럽"
        ],
        "region_depth1": "경기",
        "region_depth2": "이천시",
        "location": {
            "lat": 37.2636,
            "lon": 127.0286
        },
        "course_type": "회원제"
    },
    {
        "id": "gc_080",
        "name_kr": "뉴스프링빌C.C.",
        "name_en": "",
        "aliases": [
            "뉴스프링빌."
        ],
        "region_depth1": "경기",
        "region_depth2": "이천시",
        "location": {
            "lat": 37.1539,
            "lon": 127.42
        },
        "course_type": "회원제"
    },
    {
        "id": "gc_081",
        "name_kr": "뉴스프링빌C.C.",
        "name_en": "",
        "aliases": [
            "뉴스프링빌."
        ],
        "region_depth1": "경기",
        "region_depth2": "이천시",
        "location": {
            "lat": 37.1539,
            "lon": 127.42
        },
        "course_type": "대중제"
    },
    {
        "id": "gc_082",
        "name_kr": "비에이비스타C.C.",
        "name_en": "",
        "aliases": [
            "비에이비스타."
        ],
        "region_depth1": "경기",
        "region_depth2": "이천시",
        "location": {
            "lat": 37.2636,
            "lon": 127.0286
        },
        "course_type": "회원제"
    },
    {
        "id": "gc_083",
        "name_kr": "비에이비스타C.C.",
        "name_en": "",
        "aliases": [
            "비에이비스타."
        ],
        "region_depth1": "경기",
        "region_depth2": "이천시",
        "location": {
            "lat": 37.2636,
            "lon": 127.0286
        },
        "course_type": "대중제"
    },
    {
        "id": "gc_084",
        "name_kr": "더반G.C.",
        "name_en": "",
        "aliases": [
            "더반G.C."
        ],
        "region_depth1": "경기",
        "region_depth2": "이천시",
        "location": {
            "lat": 37.2636,
            "lon": 127.0286
        },
        "course_type": "대중제"
    },
    {
        "id": "gc_085",
        "name_kr": "사우스스프링스C.C.",
        "name_en": "",
        "aliases": [
            "사우스스프링스."
        ],
        "region_depth1": "경기",
        "region_depth2": "이천시",
        "location": {
            "lat": 37.2636,
            "lon": 127.0286
        },
        "course_type": "대중제"
    },
    {
        "id": "gc_086",
        "name_kr": "블랙스톤리조트이천",
        "name_en": "",
        "aliases": [
            "블랙스톤리조트이천"
        ],
        "region_depth1": "경기",
        "region_depth2": "이천시",
        "location": {
            "lat": 33.3387,
            "lon": 126.3124
        },
        "course_type": "회원제"
    },
    {
        "id": "gc_087",
        "name_kr": "블랙스톤리조트이천",
        "name_en": "",
        "aliases": [
            "블랙스톤리조트이천"
        ],
        "region_depth1": "경기",
        "region_depth2": "이천시",
        "location": {
            "lat": 33.3387,
            "lon": 126.3124
        },
        "course_type": "대중제"
    },
    {
        "id": "gc_088",
        "name_kr": "실크밸리G.C.",
        "name_en": "",
        "aliases": [
            "실크밸리G.C."
        ],
        "region_depth1": "경기",
        "region_depth2": "이천시",
        "location": {
            "lat": 37.2636,
            "lon": 127.0286
        },
        "course_type": "대중제"
    },
    {
        "id": "gc_089",
        "name_kr": "이천마이다스골프앤리조트",
        "name_en": "",
        "aliases": [
            "이천마이다스골프앤리조트"
        ],
        "region_depth1": "경기",
        "region_depth2": "이천시",
        "location": {
            "lat": 37.2636,
            "lon": 127.0286
        },
        "course_type": "대중제"
    },
    {
        "id": "gc_090",
        "name_kr": "웰링턴C.C.",
        "name_en": "",
        "aliases": [
            "웰링턴."
        ],
        "region_depth1": "경기",
        "region_depth2": "이천시",
        "location": {
            "lat": 37.2636,
            "lon": 127.0286
        },
        "course_type": "회원제"
    },
    {
        "id": "gc_091",
        "name_kr": "더크로스비골프클럽",
        "name_en": "",
        "aliases": [
            "더크로스비골프클럽"
        ],
        "region_depth1": "경기",
        "region_depth2": "이천시",
        "location": {
            "lat": 37.2636,
            "lon": 127.0286
        },
        "course_type": "대중제"
    },
    {
        "id": "gc_092",
        "name_kr": "파인크리크C.C",
        "name_en": "",
        "aliases": [
            "파인크리크"
        ],
        "region_depth1": "경기",
        "region_depth2": "안성시",
        "location": {
            "lat": 37.2636,
            "lon": 127.0286
        },
        "course_type": "대중제"
    },
    {
        "id": "gc_093",
        "name_kr": "골프클럽Q",
        "name_en": "",
        "aliases": [
            "골프클럽Q"
        ],
        "region_depth1": "경기",
        "region_depth2": "안성시",
        "location": {
            "lat": 37.2636,
            "lon": 127.0286
        },
        "course_type": "대중제"
    },
    {
        "id": "gc_094",
        "name_kr": "골프존카운티 안성H",
        "name_en": "",
        "aliases": [
            "골프존카운티안성H"
        ],
        "region_depth1": "경기",
        "region_depth2": "안성시",
        "location": {
            "lat": 37.2636,
            "lon": 127.0286
        },
        "course_type": "대중제"
    },
    {
        "id": "gc_095",
        "name_kr": "마에스트로 CC",
        "name_en": "",
        "aliases": [
            "마에스트로"
        ],
        "region_depth1": "경기",
        "region_depth2": "안성시",
        "location": {
            "lat": 37.2636,
            "lon": 127.0286
        },
        "course_type": "대중제"
    },
    {
        "id": "gc_096",
        "name_kr": "안성컨트리클럽",
        "name_en": "",
        "aliases": [
            "안성"
        ],
        "region_depth1": "경기",
        "region_depth2": "안성시",
        "location": {
            "lat": 37.2636,
            "lon": 127.0286
        },
        "course_type": "회원제"
    },
    {
        "id": "gc_097",
        "name_kr": "안성베네스트G.C",
        "name_en": "",
        "aliases": [
            "안성베네스트G.C"
        ],
        "region_depth1": "경기",
        "region_depth2": "안성시",
        "location": {
            "lat": 37.2636,
            "lon": 127.0286
        },
        "course_type": "회원제"
    },
    {
        "id": "gc_098",
        "name_kr": "신안컨트리클럽",
        "name_en": "",
        "aliases": [
            "신안"
        ],
        "region_depth1": "경기",
        "region_depth2": "안성시",
        "location": {
            "lat": 37.2636,
            "lon": 127.0286
        },
        "course_type": "회원제"
    },
    {
        "id": "gc_099",
        "name_kr": "윈체스트 골프클럽 대중",
        "name_en": "",
        "aliases": [
            "윈체스트골프클럽대중"
        ],
        "region_depth1": "경기",
        "region_depth2": "안성시",
        "location": {
            "lat": 37.2636,
            "lon": 127.0286
        },
        "course_type": "대중제"
    },
    {
        "id": "gc_100",
        "name_kr": "루나힐스 안성컨트리클럽",
        "name_en": "",
        "aliases": [
            "루나힐스안성"
        ],
        "region_depth1": "경기",
        "region_depth2": "안성시",
        "location": {
            "lat": 37.2636,
            "lon": 127.0286
        },
        "course_type": "대중제"
    },
    {
        "id": "gc_101",
        "name_kr": "신안 퍼블릭 CC",
        "name_en": "",
        "aliases": [
            "신안퍼블릭"
        ],
        "region_depth1": "경기",
        "region_depth2": "안성시",
        "location": {
            "lat": 37.2636,
            "lon": 127.0286
        },
        "course_type": "대중제"
    },
    {
        "id": "gc_102",
        "name_kr": "안성베네스트골프클럽 일반대중홀",
        "name_en": "",
        "aliases": [
            "안성베네스트골프클럽일반대중홀"
        ],
        "region_depth1": "경기",
        "region_depth2": "안성시",
        "location": {
            "lat": 37.2636,
            "lon": 127.0286
        },
        "course_type": "대중제"
    },
    {
        "id": "gc_103",
        "name_kr": "골프존카운티 안성W",
        "name_en": "",
        "aliases": [
            "골프존카운티안성W"
        ],
        "region_depth1": "경기",
        "region_depth2": "안성시",
        "location": {
            "lat": 37.2636,
            "lon": 127.0286
        },
        "course_type": "대중제"
    },
    {
        "id": "gc_104",
        "name_kr": "한림안성",
        "name_en": "",
        "aliases": [
            "한림안성"
        ],
        "region_depth1": "경기",
        "region_depth2": "안성시",
        "location": {
            "lat": 37.2636,
            "lon": 127.0286
        },
        "course_type": "대중제"
    },
    {
        "id": "gc_105",
        "name_kr": "에덴블루 컨트리클럽",
        "name_en": "",
        "aliases": [
            "에덴블루"
        ],
        "region_depth1": "경기",
        "region_depth2": "안성시",
        "location": {
            "lat": 37.2636,
            "lon": 127.0286
        },
        "course_type": "대중제"
    },
    {
        "id": "gc_106",
        "name_kr": "필로스골프클럽",
        "name_en": "",
        "aliases": [
            "필로스골프클럽"
        ],
        "region_depth1": "경기",
        "region_depth2": "포천시",
        "location": {
            "lat": 37.2636,
            "lon": 127.0286
        },
        "course_type": "대중제"
    },
    {
        "id": "gc_107",
        "name_kr": "포천아도니스 C.C",
        "name_en": "",
        "aliases": [
            "포천아도니스"
        ],
        "region_depth1": "경기",
        "region_depth2": "포천시",
        "location": {
            "lat": 37.2636,
            "lon": 127.0286
        },
        "course_type": "회원제"
    },
    {
        "id": "gc_108",
        "name_kr": "포천아도니스 C.C",
        "name_en": "",
        "aliases": [
            "포천아도니스"
        ],
        "region_depth1": "경기",
        "region_depth2": "포천시",
        "location": {
            "lat": 37.2636,
            "lon": 127.0286
        },
        "course_type": "대중제"
    },
    {
        "id": "gc_109",
        "name_kr": "베어크리크골프클럽",
        "name_en": "",
        "aliases": [
            "베어크리크골프클럽"
        ],
        "region_depth1": "경기",
        "region_depth2": "포천시",
        "location": {
            "lat": 37.2636,
            "lon": 127.0286
        },
        "course_type": "대중제"
    },
    {
        "id": "gc_110",
        "name_kr": "몽베르컨트리클럽",
        "name_en": "",
        "aliases": [
            "몽베르"
        ],
        "region_depth1": "경기",
        "region_depth2": "포천시",
        "location": {
            "lat": 37.2636,
            "lon": 127.0286
        },
        "course_type": "회원제"
    },
    {
        "id": "gc_111",
        "name_kr": "몽베르컨트리클럽",
        "name_en": "",
        "aliases": [
            "몽베르"
        ],
        "region_depth1": "경기",
        "region_depth2": "포천시",
        "location": {
            "lat": 37.2636,
            "lon": 127.0286
        },
        "course_type": "대중제"
    },
    {
        "id": "gc_112",
        "name_kr": "일동레이크 골프클럽",
        "name_en": "",
        "aliases": [
            "일동레이크골프클럽"
        ],
        "region_depth1": "경기",
        "region_depth2": "포천시",
        "location": {
            "lat": 37.2636,
            "lon": 127.0286
        },
        "course_type": "회원제"
    },
    {
        "id": "gc_113",
        "name_kr": "일동레이크골프클럽",
        "name_en": "",
        "aliases": [
            "일동레이크골프클럽"
        ],
        "region_depth1": "경기",
        "region_depth2": "포천시",
        "location": {
            "lat": 37.2636,
            "lon": 127.0286
        },
        "course_type": "대중제"
    },
    {
        "id": "gc_114",
        "name_kr": "푸른솔 골프클럽포천",
        "name_en": "",
        "aliases": [
            "푸른솔골프클럽포천"
        ],
        "region_depth1": "경기",
        "region_depth2": "포천시",
        "location": {
            "lat": 37.2636,
            "lon": 127.0286
        },
        "course_type": "대중제"
    },
    {
        "id": "gc_115",
        "name_kr": "포천힐스컨트리클럽",
        "name_en": "",
        "aliases": [
            "포천힐스"
        ],
        "region_depth1": "경기",
        "region_depth2": "포천시",
        "location": {
            "lat": 37.2636,
            "lon": 127.0286
        },
        "course_type": "대중제"
    },
    {
        "id": "gc_116",
        "name_kr": "포레스트힐 C.C",
        "name_en": "",
        "aliases": [
            "포레스트힐"
        ],
        "region_depth1": "경기",
        "region_depth2": "포천시",
        "location": {
            "lat": 37.2636,
            "lon": 127.0286
        },
        "course_type": "대중제"
    },
    {
        "id": "gc_117",
        "name_kr": "참밸리 컨트리클럽",
        "name_en": "",
        "aliases": [
            "참밸리"
        ],
        "region_depth1": "경기",
        "region_depth2": "포천시",
        "location": {
            "lat": 37.2636,
            "lon": 127.0286
        },
        "course_type": "대중제"
    },
    {
        "id": "gc_118",
        "name_kr": "샴발라 컨트리클럽",
        "name_en": "",
        "aliases": [
            "샴발라"
        ],
        "region_depth1": "경기",
        "region_depth2": "포천시",
        "location": {
            "lat": 37.2636,
            "lon": 127.0286
        },
        "course_type": "대중제"
    },
    {
        "id": "gc_119",
        "name_kr": "라싸 골프클럽",
        "name_en": "",
        "aliases": [
            "라싸골프클럽"
        ],
        "region_depth1": "경기",
        "region_depth2": "포천시",
        "location": {
            "lat": 37.2636,
            "lon": 127.0286
        },
        "course_type": "대중제"
    },
    {
        "id": "gc_120",
        "name_kr": "더스타휴 컨트리클럽",
        "name_en": "",
        "aliases": [
            "더스타휴"
        ],
        "region_depth1": "경기",
        "region_depth2": "양평군",
        "location": {
            "lat": 37.2636,
            "lon": 127.0286
        },
        "course_type": "회원제"
    },
    {
        "id": "gc_121",
        "name_kr": "양평 TPC 골프장",
        "name_en": "",
        "aliases": [
            "양평TPC골프장"
        ],
        "region_depth1": "경기",
        "region_depth2": "양평군",
        "location": {
            "lat": 37.2636,
            "lon": 127.0286
        },
        "course_type": "대중제"
    },
    {
        "id": "gc_122",
        "name_kr": "여주",
        "name_en": "",
        "aliases": [
            "여주"
        ],
        "region_depth1": "경기",
        "region_depth2": "여주시",
        "location": {
            "lat": 37.2636,
            "lon": 127.0286
        },
        "course_type": "회원제"
    },
    {
        "id": "gc_123",
        "name_kr": "남여주",
        "name_en": "",
        "aliases": [
            "남여주"
        ],
        "region_depth1": "경기",
        "region_depth2": "여주시",
        "location": {
            "lat": 37.2636,
            "lon": 127.0286
        },
        "course_type": "대중제"
    },
    {
        "id": "gc_124",
        "name_kr": "소피아그린",
        "name_en": "",
        "aliases": [
            "소피아그린"
        ],
        "region_depth1": "경기",
        "region_depth2": "여주시",
        "location": {
            "lat": 37.2636,
            "lon": 127.0286
        },
        "course_type": "대중제"
    },
    {
        "id": "gc_125",
        "name_kr": "솔모로",
        "name_en": "",
        "aliases": [
            "솔모로"
        ],
        "region_depth1": "경기",
        "region_depth2": "여주시",
        "location": {
            "lat": 37.2636,
            "lon": 127.0286
        },
        "course_type": "회원제"
    },
    {
        "id": "gc_126",
        "name_kr": "금강",
        "name_en": "",
        "aliases": [
            "금강"
        ],
        "region_depth1": "경기",
        "region_depth2": "여주시",
        "location": {
            "lat": 37.2636,
            "lon": 127.0286
        },
        "course_type": "회원제"
    },
    {
        "id": "gc_127",
        "name_kr": "금강",
        "name_en": "",
        "aliases": [
            "금강"
        ],
        "region_depth1": "경기",
        "region_depth2": "여주시",
        "location": {
            "lat": 37.2636,
            "lon": 127.0286
        },
        "course_type": "대중제"
    },
    {
        "id": "gc_128",
        "name_kr": "자유",
        "name_en": "",
        "aliases": [
            "자유"
        ],
        "region_depth1": "경기",
        "region_depth2": "여주시",
        "location": {
            "lat": 37.2636,
            "lon": 127.0286
        },
        "course_type": "회원제"
    },
    {
        "id": "gc_129",
        "name_kr": "빅토리아",
        "name_en": "",
        "aliases": [
            "빅토리아"
        ],
        "region_depth1": "경기",
        "region_depth2": "여주시",
        "location": {
            "lat": 37.2636,
            "lon": 127.0286
        },
        "course_type": "대중제"
    },
    {
        "id": "gc_130",
        "name_kr": "아리지",
        "name_en": "",
        "aliases": [
            "아리지"
        ],
        "region_depth1": "경기",
        "region_depth2": "여주시",
        "location": {
            "lat": 37.2636,
            "lon": 127.0286
        },
        "course_type": "대중제"
    },
    {
        "id": "gc_131",
        "name_kr": "이포",
        "name_en": "",
        "aliases": [
            "이포"
        ],
        "region_depth1": "경기",
        "region_depth2": "여주시",
        "location": {
            "lat": 37.2636,
            "lon": 127.0286
        },
        "course_type": "회원제"
    },
    {
        "id": "gc_132",
        "name_kr": "렉스필드",
        "name_en": "",
        "aliases": [
            "렉스필드"
        ],
        "region_depth1": "경기",
        "region_depth2": "여주시",
        "location": {
            "lat": 37.2636,
            "lon": 127.0286
        },
        "course_type": "회원제"
    },
    {
        "id": "gc_133",
        "name_kr": "렉스필드",
        "name_en": "",
        "aliases": [
            "렉스필드"
        ],
        "region_depth1": "경기",
        "region_depth2": "여주시",
        "location": {
            "lat": 37.2636,
            "lon": 127.0286
        },
        "course_type": "대중제"
    },
    {
        "id": "gc_134",
        "name_kr": "블루헤런",
        "name_en": "",
        "aliases": [
            "블루헤런"
        ],
        "region_depth1": "경기",
        "region_depth2": "여주시",
        "location": {
            "lat": 37.2636,
            "lon": 127.0286
        },
        "course_type": "회원제"
    },
    {
        "id": "gc_135",
        "name_kr": "신라",
        "name_en": "",
        "aliases": [
            "신라"
        ],
        "region_depth1": "경기",
        "region_depth2": "여주시",
        "location": {
            "lat": 37.2636,
            "lon": 127.0286
        },
        "course_type": "대중제"
    },
    {
        "id": "gc_136",
        "name_kr": "스카이밸리",
        "name_en": "",
        "aliases": [
            "스카이밸리"
        ],
        "region_depth1": "경기",
        "region_depth2": "여주시",
        "location": {
            "lat": 37.2636,
            "lon": 127.0286
        },
        "course_type": "회원제"
    },
    {
        "id": "gc_137",
        "name_kr": "스카이밸리",
        "name_en": "",
        "aliases": [
            "스카이밸리"
        ],
        "region_depth1": "경기",
        "region_depth2": "여주시",
        "location": {
            "lat": 37.2636,
            "lon": 127.0286
        },
        "course_type": "대중제"
    },
    {
        "id": "gc_138",
        "name_kr": "캐슬파인",
        "name_en": "",
        "aliases": [
            "캐슬파인"
        ],
        "region_depth1": "경기",
        "region_depth2": "여주시",
        "location": {
            "lat": 37.2636,
            "lon": 127.0286
        },
        "course_type": "대중제"
    },
    {
        "id": "gc_139",
        "name_kr": "해슬리나인브릿지",
        "name_en": "",
        "aliases": [
            "해슬리나인브릿지"
        ],
        "region_depth1": "경기",
        "region_depth2": "여주시",
        "location": {
            "lat": 33.34,
            "lon": 126.405
        },
        "course_type": "회원제"
    },
    {
        "id": "gc_140",
        "name_kr": "세라지오GC",
        "name_en": "",
        "aliases": [
            "세라지오"
        ],
        "region_depth1": "경기",
        "region_depth2": "여주시",
        "location": {
            "lat": 37.2636,
            "lon": 127.0286
        },
        "course_type": "대중제"
    },
    {
        "id": "gc_141",
        "name_kr": "360도",
        "name_en": "",
        "aliases": [
            "360도"
        ],
        "region_depth1": "경기",
        "region_depth2": "여주시",
        "location": {
            "lat": 37.2636,
            "lon": 127.0286
        },
        "course_type": "대중제"
    },
    {
        "id": "gc_142",
        "name_kr": "여주썬밸리",
        "name_en": "",
        "aliases": [
            "여주썬밸리"
        ],
        "region_depth1": "경기",
        "region_depth2": "여주시",
        "location": {
            "lat": 37.2636,
            "lon": 127.0286
        },
        "course_type": "대중제"
    },
    {
        "id": "gc_143",
        "name_kr": "페럼",
        "name_en": "",
        "aliases": [
            "페럼"
        ],
        "region_depth1": "경기",
        "region_depth2": "여주시",
        "location": {
            "lat": 37.2636,
            "lon": 127.0286
        },
        "course_type": "대중제"
    },
    {
        "id": "gc_144",
        "name_kr": "ROUTE 52CC",
        "name_en": "",
        "aliases": [
            "ROUTE52"
        ],
        "region_depth1": "경기",
        "region_depth2": "여주시",
        "location": {
            "lat": 37.2636,
            "lon": 127.0286
        },
        "course_type": "대중제"
    },
    {
        "id": "gc_145",
        "name_kr": "티클라우드 컨트리클럽",
        "name_en": "",
        "aliases": [
            "티클라우드"
        ],
        "region_depth1": "경기",
        "region_depth2": "동두천시",
        "location": {
            "lat": 37.2636,
            "lon": 127.0286
        },
        "course_type": "회원제"
    },
    {
        "id": "gc_146",
        "name_kr": "썬힐G.C",
        "name_en": "",
        "aliases": [
            "썬힐G.C"
        ],
        "region_depth1": "경기",
        "region_depth2": "가평군",
        "location": {
            "lat": 37.2636,
            "lon": 127.0286
        },
        "course_type": "회원제"
    },
    {
        "id": "gc_147",
        "name_kr": "썬힐대중G.C",
        "name_en": "",
        "aliases": [
            "썬힐대중G.C"
        ],
        "region_depth1": "경기",
        "region_depth2": "가평군",
        "location": {
            "lat": 37.2636,
            "lon": 127.0286
        },
        "course_type": "대중제"
    },
    {
        "id": "gc_148",
        "name_kr": "청평마이다스G.C",
        "name_en": "",
        "aliases": [
            "청평마이다스G.C"
        ],
        "region_depth1": "경기",
        "region_depth2": "가평군",
        "location": {
            "lat": 37.2636,
            "lon": 127.0286
        },
        "course_type": "회원제"
    },
    {
        "id": "gc_149",
        "name_kr": "프리스틴밸리    G.C",
        "name_en": "",
        "aliases": [
            "프리스틴밸리G.C"
        ],
        "region_depth1": "경기",
        "region_depth2": "가평군",
        "location": {
            "lat": 37.2636,
            "lon": 127.0286
        },
        "course_type": "회원제"
    },
    {
        "id": "gc_150",
        "name_kr": "아난티클럽    서울",
        "name_en": "",
        "aliases": [
            "아난티클럽서울"
        ],
        "region_depth1": "경기",
        "region_depth2": "가평군",
        "location": {
            "lat": 37.2636,
            "lon": 127.0286
        },
        "course_type": "회원제"
    },
    {
        "id": "gc_151",
        "name_kr": "베네스트G.C",
        "name_en": "",
        "aliases": [
            "베네스트G.C"
        ],
        "region_depth1": "경기",
        "region_depth2": "가평군",
        "location": {
            "lat": 37.2636,
            "lon": 127.0286
        },
        "course_type": "회원제"
    },
    {
        "id": "gc_152",
        "name_kr": "크리스탈밸리C.C",
        "name_en": "",
        "aliases": [
            "크리스탈밸리"
        ],
        "region_depth1": "경기",
        "region_depth2": "가평군",
        "location": {
            "lat": 37.2636,
            "lon": 127.0286
        },
        "course_type": "회원제"
    },
    {
        "id": "gc_153",
        "name_kr": "리앤리C.C",
        "name_en": "",
        "aliases": [
            "리앤리"
        ],
        "region_depth1": "경기",
        "region_depth2": "가평군",
        "location": {
            "lat": 37.2636,
            "lon": 127.0286
        },
        "course_type": "대중제"
    },
    {
        "id": "gc_154",
        "name_kr": "베뉴지C.C",
        "name_en": "",
        "aliases": [
            "베뉴지"
        ],
        "region_depth1": "경기",
        "region_depth2": "가평군",
        "location": {
            "lat": 37.2636,
            "lon": 127.0286
        },
        "course_type": "대중제"
    },
    {
        "id": "gc_155",
        "name_kr": "자유로컨트리클럽",
        "name_en": "",
        "aliases": [
            "자유로"
        ],
        "region_depth1": "경기",
        "region_depth2": "연천군",
        "location": {
            "lat": 37.2636,
            "lon": 127.0286
        },
        "course_type": "대중제"
    },
    {
        "id": "gc_156",
        "name_kr": "부산컨트리클럽",
        "name_en": "",
        "aliases": [
            "부산"
        ],
        "region_depth1": "부산",
        "region_depth2": "금정구",
        "location": {
            "lat": 35.1796,
            "lon": 129.0756
        },
        "course_type": "회원제"
    },
    {
        "id": "gc_157",
        "name_kr": "동래베네스트골프클럽",
        "name_en": "",
        "aliases": [
            "동래베네스트골프클럽"
        ],
        "region_depth1": "부산",
        "region_depth2": "금정구",
        "location": {
            "lat": 35.1796,
            "lon": 129.0756
        },
        "course_type": "회원제"
    },
    {
        "id": "gc_158",
        "name_kr": "아시아드컨드리클럽",
        "name_en": "",
        "aliases": [
            "아시아드컨드리클럽"
        ],
        "region_depth1": "부산",
        "region_depth2": "기장군",
        "location": {
            "lat": 35.1796,
            "lon": 129.0756
        },
        "course_type": "회원제"
    },
    {
        "id": "gc_159",
        "name_kr": "해운대컨트리클럽",
        "name_en": "",
        "aliases": [
            "해운대"
        ],
        "region_depth1": "부산",
        "region_depth2": "기장군",
        "location": {
            "lat": 35.1796,
            "lon": 129.0756
        },
        "course_type": "회원제"
    },
    {
        "id": "gc_160",
        "name_kr": "하이스트컨트리클럽",
        "name_en": "",
        "aliases": [
            "하이스트"
        ],
        "region_depth1": "부산",
        "region_depth2": "강서구",
        "location": {
            "lat": 35.1796,
            "lon": 129.0756
        },
        "course_type": "대중제"
    },
    {
        "id": "gc_161",
        "name_kr": "해라컨트리클럽",
        "name_en": "",
        "aliases": [
            "해라"
        ],
        "region_depth1": "부산",
        "region_depth2": "강서구",
        "location": {
            "lat": 35.1796,
            "lon": 129.0756
        },
        "course_type": "대중제"
    },
    {
        "id": "gc_162",
        "name_kr": "베이사이트골프클럽",
        "name_en": "",
        "aliases": [
            "베이사이트골프클럽"
        ],
        "region_depth1": "부산",
        "region_depth2": "기장군",
        "location": {
            "lat": 35.1796,
            "lon": 129.0756
        },
        "course_type": "회원제"
    },
    {
        "id": "gc_163",
        "name_kr": "해운대비치골프앤리조트",
        "name_en": "",
        "aliases": [
            "해운대비치골프앤리조트"
        ],
        "region_depth1": "부산",
        "region_depth2": "기장군",
        "location": {
            "lat": 35.2036,
            "lon": 129.2155
        },
        "course_type": "회원제"
    },
    {
        "id": "gc_164",
        "name_kr": "기장동원로얄컨트리클럽",
        "name_en": "",
        "aliases": [
            "기장동원로얄"
        ],
        "region_depth1": "부산",
        "region_depth2": "기장군",
        "location": {
            "lat": 35.1796,
            "lon": 129.0756
        },
        "course_type": "대중제"
    },
    {
        "id": "gc_165",
        "name_kr": "스톤게이트컨트리클럽",
        "name_en": "",
        "aliases": [
            "스톤게이트"
        ],
        "region_depth1": "부산",
        "region_depth2": "기장군",
        "location": {
            "lat": 35.1796,
            "lon": 129.0756
        },
        "course_type": "대중제"
    },
    {
        "id": "gc_166",
        "name_kr": "인서울27골프클럽",
        "name_en": "",
        "aliases": [
            "인서울27골프클럽"
        ],
        "region_depth1": "서울",
        "region_depth2": "서울시",
        "location": {
            "lat": 37.5665,
            "lon": 126.978
        },
        "course_type": "대중제"
    },
    {
        "id": "gc_167",
        "name_kr": "팔공컨트리클럽",
        "name_en": "",
        "aliases": [
            "팔공"
        ],
        "region_depth1": "대구",
        "region_depth2": "대구광역시",
        "location": {
            "lat": 35.8714,
            "lon": 128.6014
        },
        "course_type": "회원제"
    },
    {
        "id": "gc_168",
        "name_kr": "냉천컨트리클럽",
        "name_en": "",
        "aliases": [
            "냉천"
        ],
        "region_depth1": "대구",
        "region_depth2": "대구광역시",
        "location": {
            "lat": 35.8714,
            "lon": 128.6014
        },
        "course_type": "대중제"
    },
    {
        "id": "gc_169",
        "name_kr": "인천국제컨트리클럽",
        "name_en": "",
        "aliases": [
            "인천국제"
        ],
        "region_depth1": "인천",
        "region_depth2": "인천시",
        "location": {
            "lat": 37.4563,
            "lon": 126.7052
        },
        "course_type": "회원제"
    },
    {
        "id": "gc_170",
        "name_kr": "잭 니클라우스 골프클럽 코리아",
        "name_en": "",
        "aliases": [
            "잭니클라우스골프클럽코리아"
        ],
        "region_depth1": "인천",
        "region_depth2": "인천시",
        "location": {
            "lat": 37.4563,
            "lon": 126.7052
        },
        "course_type": "회원제"
    },
    {
        "id": "gc_171",
        "name_kr": "송도골프클럽",
        "name_en": "",
        "aliases": [
            "송도골프클럽"
        ],
        "region_depth1": "인천",
        "region_depth2": "인천시",
        "location": {
            "lat": 37.4563,
            "lon": 126.7052
        },
        "course_type": "대중제"
    },
    {
        "id": "gc_172",
        "name_kr": "인천그랜드컨트리클럽",
        "name_en": "",
        "aliases": [
            "인천그랜드"
        ],
        "region_depth1": "인천",
        "region_depth2": "인천시",
        "location": {
            "lat": 37.4563,
            "lon": 126.7052
        },
        "course_type": "대중제"
    },
    {
        "id": "gc_173",
        "name_kr": "SKY72 골프클럽(바다코스)",
        "name_en": "",
        "aliases": [
            "SKY72골프클럽(바다코스)"
        ],
        "region_depth1": "인천",
        "region_depth2": "인천시",
        "location": {
            "lat": 37.4563,
            "lon": 126.7052
        },
        "course_type": "대중제"
    },
    {
        "id": "gc_174",
        "name_kr": "SKY72 골프클럽(하늘코스)",
        "name_en": "",
        "aliases": [
            "SKY72골프클럽(하늘코스)"
        ],
        "region_depth1": "인천",
        "region_depth2": "인천시",
        "location": {
            "lat": 37.4563,
            "lon": 126.7052
        },
        "course_type": "대중제"
    },
    {
        "id": "gc_175",
        "name_kr": "베어즈베스트청라골프클럽",
        "name_en": "",
        "aliases": [
            "베어즈베스트청라골프클럽"
        ],
        "region_depth1": "인천",
        "region_depth2": "인천시",
        "location": {
            "lat": 37.4563,
            "lon": 126.7052
        },
        "course_type": "대중제"
    },
    {
        "id": "gc_176",
        "name_kr": "드림파크골프장",
        "name_en": "",
        "aliases": [
            "드림파크골프장"
        ],
        "region_depth1": "인천",
        "region_depth2": "인천시",
        "location": {
            "lat": 37.4563,
            "lon": 126.7052
        },
        "course_type": "대중제"
    },
    {
        "id": "gc_177",
        "name_kr": "오렌지듄스골프클럽",
        "name_en": "",
        "aliases": [
            "오렌지듄스골프클럽"
        ],
        "region_depth1": "인천",
        "region_depth2": "인천시",
        "location": {
            "lat": 37.4563,
            "lon": 126.7052
        },
        "course_type": "대중제"
    },
    {
        "id": "gc_178",
        "name_kr": "석모도컨트리클럽",
        "name_en": "",
        "aliases": [
            "석모도"
        ],
        "region_depth1": "인천",
        "region_depth2": "인천시",
        "location": {
            "lat": 37.4563,
            "lon": 126.7052
        },
        "course_type": "대중제"
    },
    {
        "id": "gc_179",
        "name_kr": "영종오렌지골프장",
        "name_en": "",
        "aliases": [
            "영종오렌지골프장"
        ],
        "region_depth1": "인천",
        "region_depth2": "인천시",
        "location": {
            "lat": 37.4563,
            "lon": 126.7052
        },
        "course_type": "대중제"
    },
    {
        "id": "gc_180",
        "name_kr": "강화 선두리 골프장",
        "name_en": "",
        "aliases": [
            "강화선두리골프장"
        ],
        "region_depth1": "인천",
        "region_depth2": "인천시",
        "location": {
            "lat": 37.4563,
            "lon": 126.7052
        },
        "course_type": "대중제"
    },
    {
        "id": "gc_181",
        "name_kr": "빛고을컨트리클럽",
        "name_en": "",
        "aliases": [
            "빛고을"
        ],
        "region_depth1": "광주",
        "region_depth2": "광주광역시",
        "location": {
            "lat": 35.1595,
            "lon": 126.8526
        },
        "course_type": "대중제"
    },
    {
        "id": "gc_182",
        "name_kr": "에콜리안광산골프장",
        "name_en": "",
        "aliases": [
            "에콜리안광산골프장"
        ],
        "region_depth1": "광주",
        "region_depth2": "광주광역시",
        "location": {
            "lat": 35.1595,
            "lon": 126.8526
        },
        "course_type": "대중제"
    },
    {
        "id": "gc_183",
        "name_kr": "어등산컨트리클럽",
        "name_en": "",
        "aliases": [
            "어등산"
        ],
        "region_depth1": "광주",
        "region_depth2": "광주광역시",
        "location": {
            "lat": 35.1595,
            "lon": 126.8526
        },
        "course_type": "대중제"
    },
    {
        "id": "gc_184",
        "name_kr": "유성컨트리클럽",
        "name_en": "",
        "aliases": [
            "유성"
        ],
        "region_depth1": "대전",
        "region_depth2": "유성구",
        "location": {
            "lat": 36.3504,
            "lon": 127.3845
        },
        "course_type": "회원제"
    },
    {
        "id": "gc_185",
        "name_kr": "대덕복지센터",
        "name_en": "",
        "aliases": [
            "대덕복지센터"
        ],
        "region_depth1": "대전",
        "region_depth2": "유성구",
        "location": {
            "lat": 36.3504,
            "lon": 127.3845
        },
        "course_type": "대중제"
    },
    {
        "id": "gc_186",
        "name_kr": "금실대덕밸리CC",
        "name_en": "",
        "aliases": [
            "금실대덕밸리"
        ],
        "region_depth1": "대전",
        "region_depth2": "유성구",
        "location": {
            "lat": 36.3504,
            "lon": 127.3845
        },
        "course_type": "대중제"
    },
    {
        "id": "gc_187",
        "name_kr": "보라골프장",
        "name_en": "",
        "aliases": [
            "보라골프장"
        ],
        "region_depth1": "울산",
        "region_depth2": "울주군",
        "location": {
            "lat": 35.5384,
            "lon": 129.3114
        },
        "course_type": "회원제"
    },
    {
        "id": "gc_188",
        "name_kr": "삼남골프장",
        "name_en": "",
        "aliases": [
            "삼남골프장"
        ],
        "region_depth1": "울산",
        "region_depth2": "울주군",
        "location": {
            "lat": 35.5384,
            "lon": 129.3114
        },
        "course_type": "대중제"
    },
    {
        "id": "gc_189",
        "name_kr": "더골프골프장",
        "name_en": "",
        "aliases": [
            "더골프골프장"
        ],
        "region_depth1": "울산",
        "region_depth2": "울주군",
        "location": {
            "lat": 35.5384,
            "lon": 129.3114
        },
        "course_type": "대중제"
    },
    {
        "id": "gc_190",
        "name_kr": "울산골프장",
        "name_en": "",
        "aliases": [
            "울산골프장"
        ],
        "region_depth1": "울산",
        "region_depth2": "울주군",
        "location": {
            "lat": 35.5384,
            "lon": 129.3114
        },
        "course_type": "회원제"
    },
    {
        "id": "gc_191",
        "name_kr": "베이스타즈CC",
        "name_en": "",
        "aliases": [
            "베이스타즈"
        ],
        "region_depth1": "울산",
        "region_depth2": "북구",
        "location": {
            "lat": 35.5384,
            "lon": 129.3114
        },
        "course_type": "대중제"
    },
    {
        "id": "gc_192",
        "name_kr": "세종에머슨컨트리클럽",
        "name_en": "",
        "aliases": [
            "세종에머슨"
        ],
        "region_depth1": "세종",
        "region_depth2": "세종시",
        "location": {
            "lat": 37.5665,
            "lon": 126.978
        },
        "course_type": "회원제"
    },
    {
        "id": "gc_193",
        "name_kr": "건설공제조합세종필드골프클럽",
        "name_en": "",
        "aliases": [
            "건설공제조합세종필드골프클럽"
        ],
        "region_depth1": "세종",
        "region_depth2": "세종시",
        "location": {
            "lat": 37.5665,
            "lon": 126.978
        },
        "course_type": "대중제"
    },
    {
        "id": "gc_194",
        "name_kr": "세종레이캐슬골프&리조트",
        "name_en": "",
        "aliases": [
            "세종레이캐슬골프&리조트"
        ],
        "region_depth1": "세종",
        "region_depth2": "세종시",
        "location": {
            "lat": 37.5665,
            "lon": 126.978
        },
        "course_type": "대중제"
    },
    {
        "id": "gc_195",
        "name_kr": "라데나골프클럽",
        "name_en": "",
        "aliases": [
            "라데나골프클럽"
        ],
        "region_depth1": "강원",
        "region_depth2": "강원도",
        "location": {
            "lat": 37.8853,
            "lon": 127.7298
        },
        "course_type": "회원제"
    },
    {
        "id": "gc_196",
        "name_kr": "엘리시안 강촌컨트리클럽",
        "name_en": "",
        "aliases": [
            "엘리시안강촌"
        ],
        "region_depth1": "강원",
        "region_depth2": "강원도",
        "location": {
            "lat": 37.8123,
            "lon": 127.589
        },
        "course_type": "회원제"
    },
    {
        "id": "gc_197",
        "name_kr": "엘리시안 강촌대중골프장",
        "name_en": "",
        "aliases": [
            "엘리시안강촌대중골프장"
        ],
        "region_depth1": "강원",
        "region_depth2": "강원도",
        "location": {
            "lat": 37.8853,
            "lon": 127.7298
        },
        "course_type": "대중제"
    },
    {
        "id": "gc_198",
        "name_kr": "제이드팰리스 골프클럽",
        "name_en": "",
        "aliases": [
            "제이드팰리스골프클럽"
        ],
        "region_depth1": "강원",
        "region_depth2": "강원도",
        "location": {
            "lat": 37.8853,
            "lon": 127.7298
        },
        "course_type": "회원제"
    },
    {
        "id": "gc_199",
        "name_kr": "남춘천컨트리클럽",
        "name_en": "",
        "aliases": [
            "남춘천"
        ],
        "region_depth1": "강원",
        "region_depth2": "강원도",
        "location": {
            "lat": 37.8853,
            "lon": 127.7298
        },
        "course_type": "대중제"
    },
    {
        "id": "gc_200",
        "name_kr": "휘슬링락컨트리클럽",
        "name_en": "",
        "aliases": [
            "휘슬링락"
        ],
        "region_depth1": "강원",
        "region_depth2": "강원도",
        "location": {
            "lat": 37.8853,
            "lon": 127.7298
        },
        "course_type": "회원제"
    },
    {
        "id": "gc_201",
        "name_kr": "오너스골프클럽",
        "name_en": "",
        "aliases": [
            "오너스골프클럽"
        ],
        "region_depth1": "강원",
        "region_depth2": "강원도",
        "location": {
            "lat": 37.8853,
            "lon": 127.7298
        },
        "course_type": "대중제"
    },
    {
        "id": "gc_202",
        "name_kr": "파가니카컨트리클럽",
        "name_en": "",
        "aliases": [
            "파가니카"
        ],
        "region_depth1": "강원",
        "region_depth2": "강원도",
        "location": {
            "lat": 37.8853,
            "lon": 127.7298
        },
        "course_type": "대중제"
    },
    {
        "id": "gc_203",
        "name_kr": "더플레이어스 골프클럽",
        "name_en": "",
        "aliases": [
            "더플레이어스골프클럽"
        ],
        "region_depth1": "강원",
        "region_depth2": "강원도",
        "location": {
            "lat": 37.8853,
            "lon": 127.7298
        },
        "course_type": "대중제"
    },
    {
        "id": "gc_204",
        "name_kr": "스프링베일리조트",
        "name_en": "",
        "aliases": [
            "스프링베일리조트"
        ],
        "region_depth1": "강원",
        "region_depth2": "강원도",
        "location": {
            "lat": 37.8853,
            "lon": 127.7298
        },
        "course_type": "대중제"
    },
    {
        "id": "gc_205",
        "name_kr": "로드힐스골프클럽",
        "name_en": "",
        "aliases": [
            "로드힐스골프클럽"
        ],
        "region_depth1": "강원",
        "region_depth2": "강원도",
        "location": {
            "lat": 37.8853,
            "lon": 127.7298
        },
        "course_type": "대중제"
    },
    {
        "id": "gc_206",
        "name_kr": "라비에벨컨트리클럽",
        "name_en": "",
        "aliases": [
            "라비에벨"
        ],
        "region_depth1": "강원",
        "region_depth2": "강원도",
        "location": {
            "lat": 37.8853,
            "lon": 127.7298
        },
        "course_type": "대중제"
    },
    {
        "id": "gc_207",
        "name_kr": "베어크리크 춘천",
        "name_en": "",
        "aliases": [
            "베어크리크춘천"
        ],
        "region_depth1": "강원",
        "region_depth2": "강원도",
        "location": {
            "lat": 37.8853,
            "lon": 127.7298
        },
        "course_type": "대중제"
    },
    {
        "id": "gc_208",
        "name_kr": "오크밸리회원제골프장",
        "name_en": "",
        "aliases": [
            "오크밸리회원제골프장"
        ],
        "region_depth1": "강원",
        "region_depth2": "강원도",
        "location": {
            "lat": 37.8853,
            "lon": 127.7298
        },
        "course_type": "회원제"
    },
    {
        "id": "gc_209",
        "name_kr": "오크밸리 대중골프장",
        "name_en": "",
        "aliases": [
            "오크밸리대중골프장"
        ],
        "region_depth1": "강원",
        "region_depth2": "강원도",
        "location": {
            "lat": 37.8853,
            "lon": 127.7298
        },
        "course_type": "대중제"
    },
    {
        "id": "gc_210",
        "name_kr": "Oak Hills컨트리클럽",
        "name_en": "",
        "aliases": [
            "OakHills"
        ],
        "region_depth1": "강원",
        "region_depth2": "강원도",
        "location": {
            "lat": 37.8853,
            "lon": 127.7298
        },
        "course_type": "회원제"
    },
    {
        "id": "gc_211",
        "name_kr": "센추리21컨트리클럽",
        "name_en": "",
        "aliases": [
            "센추리21"
        ],
        "region_depth1": "강원",
        "region_depth2": "강원도",
        "location": {
            "lat": 37.8853,
            "lon": 127.7298
        },
        "course_type": "회원제"
    },
    {
        "id": "gc_212",
        "name_kr": "센추리21컨트리클럽Ⅱ",
        "name_en": "",
        "aliases": [
            "센추리21Ⅱ"
        ],
        "region_depth1": "강원",
        "region_depth2": "강원도",
        "location": {
            "lat": 37.8853,
            "lon": 127.7298
        },
        "course_type": "대중제"
    },
    {
        "id": "gc_213",
        "name_kr": "센추리21퍼블릭",
        "name_en": "",
        "aliases": [
            "센추리21퍼블릭"
        ],
        "region_depth1": "강원",
        "region_depth2": "강원도",
        "location": {
            "lat": 37.8853,
            "lon": 127.7298
        },
        "course_type": "대중제"
    },
    {
        "id": "gc_214",
        "name_kr": "파크밸리골프클럽",
        "name_en": "",
        "aliases": [
            "파크밸리골프클럽"
        ],
        "region_depth1": "강원",
        "region_depth2": "강원도",
        "location": {
            "lat": 37.8853,
            "lon": 127.7298
        },
        "course_type": "대중제"
    },
    {
        "id": "gc_215",
        "name_kr": "동서울레스피아",
        "name_en": "",
        "aliases": [
            "동서울레스피아"
        ],
        "region_depth1": "강원",
        "region_depth2": "강원도",
        "location": {
            "lat": 37.8853,
            "lon": 127.7298
        },
        "course_type": "대중제"
    },
    {
        "id": "gc_216",
        "name_kr": "인터불고원주골프클럽",
        "name_en": "",
        "aliases": [
            "인터불고원주골프클럽"
        ],
        "region_depth1": "강원",
        "region_depth2": "강원도",
        "location": {
            "lat": 37.8853,
            "lon": 127.7298
        },
        "course_type": "대중제"
    },
    {
        "id": "gc_217",
        "name_kr": "샌드파인골프클럽",
        "name_en": "",
        "aliases": [
            "샌드파인골프클럽"
        ],
        "region_depth1": "강원",
        "region_depth2": "강원도",
        "location": {
            "lat": 37.8853,
            "lon": 127.7298
        },
        "course_type": "회원제"
    },
    {
        "id": "gc_218",
        "name_kr": "메이플비치골프&리조트",
        "name_en": "",
        "aliases": [
            "메이플비치골프&리조트"
        ],
        "region_depth1": "강원",
        "region_depth2": "강원도",
        "location": {
            "lat": 37.7281,
            "lon": 129.0015
        },
        "course_type": "대중제"
    },
    {
        "id": "gc_219",
        "name_kr": "오투리조트 C.C",
        "name_en": "",
        "aliases": [
            "오투리조트"
        ],
        "region_depth1": "강원",
        "region_depth2": "강원도",
        "location": {
            "lat": 37.8853,
            "lon": 127.7298
        },
        "course_type": "대중제"
    },
    {
        "id": "gc_220",
        "name_kr": "오투리조트 골프",
        "name_en": "",
        "aliases": [
            "오투리조트골프"
        ],
        "region_depth1": "강원",
        "region_depth2": "강원도",
        "location": {
            "lat": 37.8853,
            "lon": 127.7298
        },
        "course_type": "대중제"
    },
    {
        "id": "gc_221",
        "name_kr": "설악프라자컨트리클럽",
        "name_en": "",
        "aliases": [
            "설악프라자"
        ],
        "region_depth1": "강원",
        "region_depth2": "강원도",
        "location": {
            "lat": 37.8853,
            "lon": 127.7298
        },
        "course_type": "회원제"
    },
    {
        "id": "gc_222",
        "name_kr": "영랑호컨트리클럽",
        "name_en": "",
        "aliases": [
            "영랑호"
        ],
        "region_depth1": "강원",
        "region_depth2": "강원도",
        "location": {
            "lat": 37.8853,
            "lon": 127.7298
        },
        "course_type": "대중제"
    },
    {
        "id": "gc_223",
        "name_kr": "파인밸리컨트리클럽",
        "name_en": "",
        "aliases": [
            "파인밸리"
        ],
        "region_depth1": "강원",
        "region_depth2": "강원도",
        "location": {
            "lat": 37.8853,
            "lon": 127.7298
        },
        "course_type": "대중제"
    },
    {
        "id": "gc_224",
        "name_kr": "블랙밸리컨트리클럽",
        "name_en": "",
        "aliases": [
            "블랙밸리"
        ],
        "region_depth1": "강원",
        "region_depth2": "강원도",
        "location": {
            "lat": 37.8853,
            "lon": 127.7298
        },
        "course_type": "대중제"
    },
    {
        "id": "gc_225",
        "name_kr": "소노펠리체 컨트리클럽 비발디파크 웨스트",
        "name_en": "",
        "aliases": [
            "소노펠리체비발디파크웨스트"
        ],
        "region_depth1": "강원",
        "region_depth2": "강원도",
        "location": {
            "lat": 37.8853,
            "lon": 127.7298
        },
        "course_type": "대중제"
    },
    {
        "id": "gc_226",
        "name_kr": "소노펠리체 컨트리클럽 비발디파크 마운틴",
        "name_en": "",
        "aliases": [
            "소노펠리체비발디파크마운틴"
        ],
        "region_depth1": "강원",
        "region_depth2": "강원도",
        "location": {
            "lat": 37.8853,
            "lon": 127.7298
        },
        "course_type": "대중제"
    },
    {
        "id": "gc_227",
        "name_kr": "소노펠리체 컨트리클럽 비발디파크 이스트",
        "name_en": "",
        "aliases": [
            "소노펠리체비발디파크이스트"
        ],
        "region_depth1": "강원",
        "region_depth2": "강원도",
        "location": {
            "lat": 37.8853,
            "lon": 127.7298
        },
        "course_type": "대중제"
    },
    {
        "id": "gc_228",
        "name_kr": "비콘힐스골프클럽",
        "name_en": "",
        "aliases": [
            "비콘힐스골프클럽"
        ],
        "region_depth1": "강원",
        "region_depth2": "강원도",
        "location": {
            "lat": 37.8853,
            "lon": 127.7298
        },
        "course_type": "대중제"
    },
    {
        "id": "gc_229",
        "name_kr": "힐드로사이컨트리클럽",
        "name_en": "",
        "aliases": [
            "힐드로사이"
        ],
        "region_depth1": "강원",
        "region_depth2": "강원도",
        "location": {
            "lat": 37.8853,
            "lon": 127.7298
        },
        "course_type": "대중제"
    },
    {
        "id": "gc_230",
        "name_kr": "클럽모우골프 &라이프스타일",
        "name_en": "",
        "aliases": [
            "클럽모우골프&라이프스타일"
        ],
        "region_depth1": "강원",
        "region_depth2": "강원도",
        "location": {
            "lat": 37.8853,
            "lon": 127.7298
        },
        "course_type": "대중제"
    },
    {
        "id": "gc_231",
        "name_kr": "세이지우드CC홍천",
        "name_en": "",
        "aliases": [
            "세이지우드홍천"
        ],
        "region_depth1": "강원",
        "region_depth2": "강원도",
        "location": {
            "lat": 37.8853,
            "lon": 127.7298
        },
        "course_type": "대중제"
    },
    {
        "id": "gc_232",
        "name_kr": "샤인데일골프&리조트",
        "name_en": "",
        "aliases": [
            "샤인데일골프&리조트"
        ],
        "region_depth1": "강원",
        "region_depth2": "강원도",
        "location": {
            "lat": 37.8853,
            "lon": 127.7298
        },
        "course_type": "대중제"
    },
    {
        "id": "gc_233",
        "name_kr": "웰리힐리컨트리클럽",
        "name_en": "",
        "aliases": [
            "웰리힐리"
        ],
        "region_depth1": "강원",
        "region_depth2": "강원도",
        "location": {
            "lat": 37.8853,
            "lon": 127.7298
        },
        "course_type": "회원제"
    },
    {
        "id": "gc_234",
        "name_kr": "웰리힐리퍼블릭골프장",
        "name_en": "",
        "aliases": [
            "웰리힐리퍼블릭골프장"
        ],
        "region_depth1": "강원",
        "region_depth2": "강원도",
        "location": {
            "lat": 37.8853,
            "lon": 127.7298
        },
        "course_type": "대중제"
    },
    {
        "id": "gc_235",
        "name_kr": "동원썬밸리컨트리클럽",
        "name_en": "",
        "aliases": [
            "동원썬밸리"
        ],
        "region_depth1": "강원",
        "region_depth2": "강원도",
        "location": {
            "lat": 37.8853,
            "lon": 127.7298
        },
        "course_type": "대중제"
    },
    {
        "id": "gc_236",
        "name_kr": "알프스대영컨트리클럽",
        "name_en": "",
        "aliases": [
            "알프스대영"
        ],
        "region_depth1": "강원",
        "region_depth2": "강원도",
        "location": {
            "lat": 37.8853,
            "lon": 127.7298
        },
        "course_type": "대중제"
    },
    {
        "id": "gc_237",
        "name_kr": "벨라스톤컨트리클럽",
        "name_en": "",
        "aliases": [
            "벨라스톤"
        ],
        "region_depth1": "강원",
        "region_depth2": "강원도",
        "location": {
            "lat": 37.8853,
            "lon": 127.7298
        },
        "course_type": "대중제"
    },
    {
        "id": "gc_238",
        "name_kr": "에스엘세레스 옥스필드 CC",
        "name_en": "",
        "aliases": [
            "에스엘세레스옥스필드"
        ],
        "region_depth1": "강원",
        "region_depth2": "강원도",
        "location": {
            "lat": 37.8853,
            "lon": 127.7298
        },
        "course_type": "대중제"
    },
    {
        "id": "gc_239",
        "name_kr": "동강시스타대중골프장",
        "name_en": "",
        "aliases": [
            "동강시스타대중골프장"
        ],
        "region_depth1": "강원",
        "region_depth2": "강원도",
        "location": {
            "lat": 37.8853,
            "lon": 127.7298
        },
        "course_type": "대중제"
    },
    {
        "id": "gc_240",
        "name_kr": "용평리조트골프클럽",
        "name_en": "",
        "aliases": [
            "용평리조트골프클럽"
        ],
        "region_depth1": "강원",
        "region_depth2": "강원도",
        "location": {
            "lat": 37.8853,
            "lon": 127.7298
        },
        "course_type": "회원제"
    },
    {
        "id": "gc_241",
        "name_kr": "용평버치힐골프클럽",
        "name_en": "",
        "aliases": [
            "용평버치힐골프클럽"
        ],
        "region_depth1": "강원",
        "region_depth2": "강원도",
        "location": {
            "lat": 37.8853,
            "lon": 127.7298
        },
        "course_type": "회원제"
    },
    {
        "id": "gc_242",
        "name_kr": "용평리조트대중골프장",
        "name_en": "",
        "aliases": [
            "용평리조트대중골프장"
        ],
        "region_depth1": "강원",
        "region_depth2": "강원도",
        "location": {
            "lat": 37.8853,
            "lon": 127.7298
        },
        "course_type": "대중제"
    },
    {
        "id": "gc_243",
        "name_kr": "휘닉스 컨트리클럽",
        "name_en": "",
        "aliases": [
            "휘닉스"
        ],
        "region_depth1": "강원",
        "region_depth2": "강원도",
        "location": {
            "lat": 37.8853,
            "lon": 127.7298
        },
        "course_type": "회원제"
    },
    {
        "id": "gc_244",
        "name_kr": "휘닉스대중골프장",
        "name_en": "",
        "aliases": [
            "휘닉스대중골프장"
        ],
        "region_depth1": "강원",
        "region_depth2": "강원도",
        "location": {
            "lat": 37.8853,
            "lon": 127.7298
        },
        "course_type": "대중제"
    },
    {
        "id": "gc_245",
        "name_kr": "알펜시아컨트리클럽",
        "name_en": "",
        "aliases": [
            "알펜시아"
        ],
        "region_depth1": "강원",
        "region_depth2": "강원도",
        "location": {
            "lat": 37.8853,
            "lon": 127.7298
        },
        "course_type": "회원제"
    },
    {
        "id": "gc_246",
        "name_kr": "알펜시아 700골프클럽",
        "name_en": "",
        "aliases": [
            "알펜시아700골프클럽"
        ],
        "region_depth1": "강원",
        "region_depth2": "강원도",
        "location": {
            "lat": 37.8853,
            "lon": 127.7298
        },
        "course_type": "대중제"
    },
    {
        "id": "gc_247",
        "name_kr": "하이원컨트리클럽",
        "name_en": "",
        "aliases": [
            "하이원"
        ],
        "region_depth1": "강원",
        "region_depth2": "강원도",
        "location": {
            "lat": 37.8853,
            "lon": 127.7298
        },
        "course_type": "대중제"
    },
    {
        "id": "gc_248",
        "name_kr": "에콜리안정선골프장",
        "name_en": "",
        "aliases": [
            "에콜리안정선골프장"
        ],
        "region_depth1": "강원",
        "region_depth2": "강원도",
        "location": {
            "lat": 37.8853,
            "lon": 127.7298
        },
        "course_type": "대중제"
    },
    {
        "id": "gc_249",
        "name_kr": "한탄강컨트리클럽",
        "name_en": "",
        "aliases": [
            "한탄강"
        ],
        "region_depth1": "강원",
        "region_depth2": "강원도",
        "location": {
            "lat": 37.8853,
            "lon": 127.7298
        },
        "course_type": "대중제"
    },
    {
        "id": "gc_250",
        "name_kr": "설악썬밸리컨트리클럽",
        "name_en": "",
        "aliases": [
            "설악썬밸리"
        ],
        "region_depth1": "강원",
        "region_depth2": "강원도",
        "location": {
            "lat": 37.8853,
            "lon": 127.7298
        },
        "course_type": "대중제"
    },
    {
        "id": "gc_251",
        "name_kr": "소노펠리체 컨트리클럽 델피노",
        "name_en": "",
        "aliases": [
            "소노펠리체델피노"
        ],
        "region_depth1": "강원",
        "region_depth2": "강원도",
        "location": {
            "lat": 37.8853,
            "lon": 127.7298
        },
        "course_type": "대중제"
    },
    {
        "id": "gc_252",
        "name_kr": "파인리즈컨트리클럽",
        "name_en": "",
        "aliases": [
            "파인리즈"
        ],
        "region_depth1": "강원",
        "region_depth2": "강원도",
        "location": {
            "lat": 38.2433,
            "lon": 128.5376
        },
        "course_type": "대중제"
    },
    {
        "id": "gc_253",
        "name_kr": "설해원",
        "name_en": "",
        "aliases": [
            "설해원"
        ],
        "region_depth1": "강원",
        "region_depth2": "강원도",
        "location": {
            "lat": 37.8853,
            "lon": 127.7298
        },
        "course_type": "대중제"
    },
    {
        "id": "gc_254",
        "name_kr": "설해원 더 레전드 코스",
        "name_en": "",
        "aliases": [
            "설해원더레전드코스"
        ],
        "region_depth1": "강원",
        "region_depth2": "강원도",
        "location": {
            "lat": 37.8853,
            "lon": 127.7298
        },
        "course_type": "대중제"
    },
    {
        "id": "gc_255",
        "name_kr": "그랜드",
        "name_en": "",
        "aliases": [
            "그랜드"
        ],
        "region_depth1": "충북",
        "region_depth2": "청주시",
        "location": {
            "lat": 36.6358,
            "lon": 127.4912
        },
        "course_type": "회원제"
    },
    {
        "id": "gc_256",
        "name_kr": "에스엘세레스임페리얼레이크",
        "name_en": "",
        "aliases": [
            "에스엘세레스임페리얼레이크"
        ],
        "region_depth1": "충북",
        "region_depth2": "충주시",
        "location": {
            "lat": 36.6358,
            "lon": 127.4912
        },
        "course_type": "대중제"
    },
    {
        "id": "gc_257",
        "name_kr": "아난티 중앙골프클럽(구,디에머슨)",
        "name_en": "",
        "aliases": [
            "아난티중앙골프클럽(구,디에머슨)"
        ],
        "region_depth1": "충북",
        "region_depth2": "진천군",
        "location": {
            "lat": 36.6358,
            "lon": 127.4912
        },
        "course_type": "회원제"
    },
    {
        "id": "gc_258",
        "name_kr": "천룡",
        "name_en": "",
        "aliases": [
            "천룡"
        ],
        "region_depth1": "충북",
        "region_depth2": "진천군",
        "location": {
            "lat": 36.6358,
            "lon": 127.4912
        },
        "course_type": "회원제"
    },
    {
        "id": "gc_259",
        "name_kr": "천룡",
        "name_en": "",
        "aliases": [
            "천룡"
        ],
        "region_depth1": "충북",
        "region_depth2": "진천군",
        "location": {
            "lat": 36.6358,
            "lon": 127.4912
        },
        "course_type": "대중제"
    },
    {
        "id": "gc_260",
        "name_kr": "시그너스",
        "name_en": "",
        "aliases": [
            "시그너스"
        ],
        "region_depth1": "충북",
        "region_depth2": "충주시",
        "location": {
            "lat": 36.6358,
            "lon": 127.4912
        },
        "course_type": "대중제"
    },
    {
        "id": "gc_261",
        "name_kr": "시그너스",
        "name_en": "",
        "aliases": [
            "시그너스"
        ],
        "region_depth1": "충북",
        "region_depth2": "충주시",
        "location": {
            "lat": 36.6358,
            "lon": 127.4912
        },
        "course_type": "대중제"
    },
    {
        "id": "gc_262",
        "name_kr": "떼제베",
        "name_en": "",
        "aliases": [
            "떼제베"
        ],
        "region_depth1": "충북",
        "region_depth2": "청주시",
        "location": {
            "lat": 36.6358,
            "lon": 127.4912
        },
        "course_type": "대중제"
    },
    {
        "id": "gc_263",
        "name_kr": "썬밸리",
        "name_en": "",
        "aliases": [
            "썬밸리"
        ],
        "region_depth1": "충북",
        "region_depth2": "음성군",
        "location": {
            "lat": 36.6358,
            "lon": 127.4912
        },
        "course_type": "대중제"
    },
    {
        "id": "gc_264",
        "name_kr": "세레니티cc(구, 실크리버)",
        "name_en": "",
        "aliases": [
            "세레니티cc(구,실크리버)"
        ],
        "region_depth1": "충북",
        "region_depth2": "청주시",
        "location": {
            "lat": 36.6358,
            "lon": 127.4912
        },
        "course_type": "회원제"
    },
    {
        "id": "gc_265",
        "name_kr": "세레니티cc(구, 실크리버)",
        "name_en": "",
        "aliases": [
            "세레니티cc(구,실크리버)"
        ],
        "region_depth1": "충북",
        "region_depth2": "청주시",
        "location": {
            "lat": 36.6358,
            "lon": 127.4912
        },
        "course_type": "대중제"
    },
    {
        "id": "gc_266",
        "name_kr": "중원",
        "name_en": "",
        "aliases": [
            "중원"
        ],
        "region_depth1": "충북",
        "region_depth2": "충주시",
        "location": {
            "lat": 36.6358,
            "lon": 127.4912
        },
        "course_type": "대중제"
    },
    {
        "id": "gc_267",
        "name_kr": "레인보우힐스",
        "name_en": "",
        "aliases": [
            "레인보우힐스"
        ],
        "region_depth1": "충북",
        "region_depth2": "음성군",
        "location": {
            "lat": 37.0123,
            "lon": 127.6123
        },
        "course_type": "대중제"
    },
    {
        "id": "gc_268",
        "name_kr": "스타cc",
        "name_en": "",
        "aliases": [
            "스타cc"
        ],
        "region_depth1": "충북",
        "region_depth2": "충주시",
        "location": {
            "lat": 36.6358,
            "lon": 127.4912
        },
        "course_type": "회원제"
    },
    {
        "id": "gc_269",
        "name_kr": "아름다운cc",
        "name_en": "",
        "aliases": [
            "아름다운cc"
        ],
        "region_depth1": "충북",
        "region_depth2": "진천군",
        "location": {
            "lat": 36.6358,
            "lon": 127.4912
        },
        "course_type": "대중제"
    },
    {
        "id": "gc_270",
        "name_kr": "골드나인",
        "name_en": "",
        "aliases": [
            "골드나인"
        ],
        "region_depth1": "충북",
        "region_depth2": "청주시",
        "location": {
            "lat": 36.6358,
            "lon": 127.4912
        },
        "course_type": "대중제"
    },
    {
        "id": "gc_271",
        "name_kr": "센테리움",
        "name_en": "",
        "aliases": [
            "센테리움"
        ],
        "region_depth1": "충북",
        "region_depth2": "충주시",
        "location": {
            "lat": 36.6358,
            "lon": 127.4912
        },
        "course_type": "대중제"
    },
    {
        "id": "gc_272",
        "name_kr": "대호단양",
        "name_en": "",
        "aliases": [
            "대호단양"
        ],
        "region_depth1": "충북",
        "region_depth2": "단양군",
        "location": {
            "lat": 36.6358,
            "lon": 127.4912
        },
        "course_type": "대중제"
    },
    {
        "id": "gc_273",
        "name_kr": "대영베이스",
        "name_en": "",
        "aliases": [
            "대영베이스"
        ],
        "region_depth1": "충북",
        "region_depth2": "충주시",
        "location": {
            "lat": 37.0234,
            "lon": 127.789
        },
        "course_type": "대중제"
    },
    {
        "id": "gc_274",
        "name_kr": "골프존카운티 진천",
        "name_en": "",
        "aliases": [
            "골프존카운티진천"
        ],
        "region_depth1": "충북",
        "region_depth2": "진천군",
        "location": {
            "lat": 36.6358,
            "lon": 127.4912
        },
        "course_type": "대중제"
    },
    {
        "id": "gc_275",
        "name_kr": "오창에딘버러",
        "name_en": "",
        "aliases": [
            "오창에딘버러"
        ],
        "region_depth1": "충북",
        "region_depth2": "청주시",
        "location": {
            "lat": 36.6358,
            "lon": 127.4912
        },
        "course_type": "대중제"
    },
    {
        "id": "gc_276",
        "name_kr": "이븐데일",
        "name_en": "",
        "aliases": [
            "이븐데일"
        ],
        "region_depth1": "충북",
        "region_depth2": "청주시",
        "location": {
            "lat": 36.6358,
            "lon": 127.4912
        },
        "course_type": "대중제"
    },
    {
        "id": "gc_277",
        "name_kr": "킹즈락",
        "name_en": "",
        "aliases": [
            "킹즈락"
        ],
        "region_depth1": "충북",
        "region_depth2": "제천시",
        "location": {
            "lat": 36.6358,
            "lon": 127.4912
        },
        "course_type": "대중제"
    },
    {
        "id": "gc_278",
        "name_kr": "골프존카운티화랑",
        "name_en": "",
        "aliases": [
            "골프존카운티화랑"
        ],
        "region_depth1": "충북",
        "region_depth2": "진천군",
        "location": {
            "lat": 36.6358,
            "lon": 127.4912
        },
        "course_type": "대중제"
    },
    {
        "id": "gc_279",
        "name_kr": "젠스필드",
        "name_en": "",
        "aliases": [
            "젠스필드"
        ],
        "region_depth1": "충북",
        "region_depth2": "음성군",
        "location": {
            "lat": 36.6358,
            "lon": 127.4912
        },
        "course_type": "대중제"
    },
    {
        "id": "gc_280",
        "name_kr": "로얄포레",
        "name_en": "",
        "aliases": [
            "로얄포레"
        ],
        "region_depth1": "충북",
        "region_depth2": "충주시",
        "location": {
            "lat": 36.6358,
            "lon": 127.4912
        },
        "course_type": "대중제"
    },
    {
        "id": "gc_281",
        "name_kr": "대영힐스",
        "name_en": "",
        "aliases": [
            "대영힐스"
        ],
        "region_depth1": "충북",
        "region_depth2": "충주시",
        "location": {
            "lat": 37.0123,
            "lon": 127.7789
        },
        "course_type": "대중제"
    },
    {
        "id": "gc_282",
        "name_kr": "진양밸리",
        "name_en": "",
        "aliases": [
            "진양밸리"
        ],
        "region_depth1": "충북",
        "region_depth2": "음성군",
        "location": {
            "lat": 36.6358,
            "lon": 127.4912
        },
        "course_type": "대중제"
    },
    {
        "id": "gc_283",
        "name_kr": "에콜리안제천",
        "name_en": "",
        "aliases": [
            "에콜리안제천"
        ],
        "region_depth1": "충북",
        "region_depth2": "제천시",
        "location": {
            "lat": 36.6358,
            "lon": 127.4912
        },
        "course_type": "대중제"
    },
    {
        "id": "gc_284",
        "name_kr": "코스카",
        "name_en": "",
        "aliases": [
            "코스카"
        ],
        "region_depth1": "충북",
        "region_depth2": "음성군",
        "location": {
            "lat": 36.6358,
            "lon": 127.4912
        },
        "course_type": "대중제"
    },
    {
        "id": "gc_285",
        "name_kr": "클럽디속리산",
        "name_en": "",
        "aliases": [
            "클럽디속리산"
        ],
        "region_depth1": "충북",
        "region_depth2": "보은군",
        "location": {
            "lat": 36.6358,
            "lon": 127.4912
        },
        "course_type": "대중제"
    },
    {
        "id": "gc_286",
        "name_kr": "킹스데일",
        "name_en": "",
        "aliases": [
            "킹스데일"
        ],
        "region_depth1": "충북",
        "region_depth2": "충주시",
        "location": {
            "lat": 36.6358,
            "lon": 127.4912
        },
        "course_type": "대중제"
    },
    {
        "id": "gc_287",
        "name_kr": "동촌",
        "name_en": "",
        "aliases": [
            "동촌"
        ],
        "region_depth1": "충북",
        "region_depth2": "충주시",
        "location": {
            "lat": 36.6358,
            "lon": 127.4912
        },
        "course_type": "대중제"
    },
    {
        "id": "gc_288",
        "name_kr": "세일",
        "name_en": "",
        "aliases": [
            "세일"
        ],
        "region_depth1": "충북",
        "region_depth2": "충주시",
        "location": {
            "lat": 36.6358,
            "lon": 127.4912
        },
        "course_type": "대중제"
    },
    {
        "id": "gc_289",
        "name_kr": "클럽디보은",
        "name_en": "",
        "aliases": [
            "클럽디보은"
        ],
        "region_depth1": "충북",
        "region_depth2": "보은군",
        "location": {
            "lat": 36.6358,
            "lon": 127.4912
        },
        "course_type": "대중제"
    },
    {
        "id": "gc_290",
        "name_kr": "감곡cc",
        "name_en": "",
        "aliases": [
            "감곡cc"
        ],
        "region_depth1": "충북",
        "region_depth2": "음성군",
        "location": {
            "lat": 36.6358,
            "lon": 127.4912
        },
        "course_type": "대중제"
    },
    {
        "id": "gc_291",
        "name_kr": "영동일라이트컨트리클럽",
        "name_en": "",
        "aliases": [
            "영동일라이트"
        ],
        "region_depth1": "충북",
        "region_depth2": "영동군",
        "location": {
            "lat": 36.6358,
            "lon": 127.4912
        },
        "course_type": "대중제"
    },
    {
        "id": "gc_292",
        "name_kr": "올데이골프앤리조트",
        "name_en": "",
        "aliases": [
            "올데이골프앤리조트"
        ],
        "region_depth1": "충북",
        "region_depth2": "충주시",
        "location": {
            "lat": 36.6358,
            "lon": 127.4912
        },
        "course_type": "대중제"
    },
    {
        "id": "gc_293",
        "name_kr": "일레븐",
        "name_en": "",
        "aliases": [
            "일레븐"
        ],
        "region_depth1": "충북",
        "region_depth2": "충주시",
        "location": {
            "lat": 36.6358,
            "lon": 127.4912
        },
        "course_type": "대중제"
    },
    {
        "id": "gc_294",
        "name_kr": "블랙스톤",
        "name_en": "",
        "aliases": [
            "블랙스톤"
        ],
        "region_depth1": "충북",
        "region_depth2": "증평군",
        "location": {
            "lat": 33.3387,
            "lon": 126.3124
        },
        "course_type": "대중제"
    },
    {
        "id": "gc_295",
        "name_kr": "우정힐스 컨트리클럽",
        "name_en": "",
        "aliases": [
            "우정힐스"
        ],
        "region_depth1": "충남",
        "region_depth2": "천안시",
        "location": {
            "lat": 36.6588,
            "lon": 126.6728
        },
        "course_type": "회원제"
    },
    {
        "id": "gc_296",
        "name_kr": "천안상록골프장",
        "name_en": "",
        "aliases": [
            "천안상록골프장"
        ],
        "region_depth1": "충남",
        "region_depth2": "천안시",
        "location": {
            "lat": 36.6588,
            "lon": 126.6728
        },
        "course_type": "대중제"
    },
    {
        "id": "gc_297",
        "name_kr": "골프존카운티 천안",
        "name_en": "",
        "aliases": [
            "골프존카운티천안"
        ],
        "region_depth1": "충남",
        "region_depth2": "천안시",
        "location": {
            "lat": 36.6588,
            "lon": 126.6728
        },
        "course_type": "대중제"
    },
    {
        "id": "gc_298",
        "name_kr": "뉴데이컨트리클럽",
        "name_en": "",
        "aliases": [
            "뉴데이"
        ],
        "region_depth1": "충남",
        "region_depth2": "천안시",
        "location": {
            "lat": 36.6588,
            "lon": 126.6728
        },
        "course_type": "회원제"
    },
    {
        "id": "gc_299",
        "name_kr": "프린세스 골프클럽",
        "name_en": "",
        "aliases": [
            "프린세스골프클럽"
        ],
        "region_depth1": "충남",
        "region_depth2": "공주시",
        "location": {
            "lat": 36.6588,
            "lon": 126.6728
        },
        "course_type": "대중제"
    },
    {
        "id": "gc_300",
        "name_kr": "골드리버CC",
        "name_en": "",
        "aliases": [
            "골드리버"
        ],
        "region_depth1": "충남",
        "region_depth2": "공주시",
        "location": {
            "lat": 36.6588,
            "lon": 126.6728
        },
        "course_type": "대중제"
    },
    {
        "id": "gc_301",
        "name_kr": "계룡산골프장",
        "name_en": "",
        "aliases": [
            "계룡산골프장"
        ],
        "region_depth1": "충남",
        "region_depth2": "공주시",
        "location": {
            "lat": 36.6588,
            "lon": 126.6728
        },
        "course_type": "대중제"
    },
    {
        "id": "gc_302",
        "name_kr": "보령베이스CC",
        "name_en": "",
        "aliases": [
            "보령베이스"
        ],
        "region_depth1": "충남",
        "region_depth2": "보령시",
        "location": {
            "lat": 36.6588,
            "lon": 126.6728
        },
        "course_type": "대중제"
    },
    {
        "id": "gc_303",
        "name_kr": "에스앤 골프리조트",
        "name_en": "",
        "aliases": [
            "에스앤골프리조트"
        ],
        "region_depth1": "충남",
        "region_depth2": "보령시",
        "location": {
            "lat": 36.6588,
            "lon": 126.6728
        },
        "course_type": "대중제"
    },
    {
        "id": "gc_304",
        "name_kr": "도고컨트리구락부",
        "name_en": "",
        "aliases": [
            "도고컨트리구락부"
        ],
        "region_depth1": "충남",
        "region_depth2": "아산시",
        "location": {
            "lat": 36.6588,
            "lon": 126.6728
        },
        "course_type": "회원제"
    },
    {
        "id": "gc_305",
        "name_kr": "에스지아름다운골프&리조트",
        "name_en": "",
        "aliases": [
            "에스지아름다운골프&리조트"
        ],
        "region_depth1": "충남",
        "region_depth2": "아산시",
        "location": {
            "lat": 36.6588,
            "lon": 126.6728
        },
        "course_type": "대중제"
    },
    {
        "id": "gc_306",
        "name_kr": "서산수 골프앤리조트",
        "name_en": "",
        "aliases": [
            "서산수골프앤리조트"
        ],
        "region_depth1": "충남",
        "region_depth2": "서산시",
        "location": {
            "lat": 36.6588,
            "lon": 126.6728
        },
        "course_type": "대중제"
    },
    {
        "id": "gc_307",
        "name_kr": "더힐 컨트리클럽",
        "name_en": "",
        "aliases": [
            "더힐"
        ],
        "region_depth1": "충남",
        "region_depth2": "논산시",
        "location": {
            "lat": 36.6588,
            "lon": 126.6728
        },
        "course_type": "대중제"
    },
    {
        "id": "gc_308",
        "name_kr": "아리스타 CC",
        "name_en": "",
        "aliases": [
            "아리스타"
        ],
        "region_depth1": "충남",
        "region_depth2": "연무읍",
        "location": {
            "lat": 36.6588,
            "lon": 126.6728
        },
        "course_type": "대중제"
    },